[
    {
        "id": 153054,
        "sido": "광주",
        "sigungu": "동구",
        "eupmyeondong": "무등로307번길",
        "address": "광주광역시 동구 무등로307번길 25",
        "purpose": "쓰레기단속",
        "latitude": 35.16448618,
        "longitude": 126.9180068,
        "storage_days": 0,
        "manager_phone": "062-608-2513"
    },
    {
        "id": 153055,
        "sido": "광주",
        "sigungu": "동구",
        "eupmyeondong": "참판로20번길",
        "address": "광주광역시 동구 참판로20번길 12",
        "purpose": "쓰레기단속",
        "latitude": 35.16072503,
        "longitude": 126.9283059,
        "storage_days": 0,
        "manager_phone": "062-608-2513"
    },
    {
        "id": 153056,
        "sido": "광주",
        "sigungu": "동구",
        "eupmyeondong": "산수길35번길",
        "address": "광주광역시 동구 산수길35번길 22",
        "purpose": "쓰레기단속",
        "latitude": 35.15828671,
        "longitude": 126.9265564,
        "storage_days": 0,
        "manager_phone": "062-608-2513"
    },
    {
        "id": 153057,
        "sido": "광주",
        "sigungu": "동구",
        "eupmyeondong": "참판로6번길",
        "address": "광주광역시 동구 참판로6번길 6",
        "purpose": "쓰레기단속",
        "latitude": 35.15989505,
        "longitude": 126.9270861,
        "storage_days": 0,
        "manager_phone": "062-608-2513"
    },
    {
        "id": 153058,
        "sido": "광주",
        "sigungu": "동구",
        "eupmyeondong": "필문대로205번길",
        "address": "광주광역시 동구 필문대로205번길 11-1",
        "purpose": "쓰레기단속",
        "latitude": 35.15218965,
        "longitude": 126.9323082,
        "storage_days": 0,
        "manager_phone": "062-608-2513"
    },
    {
        "id": 153059,
        "sido": "광주",
        "sigungu": "동구",
        "eupmyeondong": "산수길25번길8-7",
        "address": "광주광역시 동구 산수길25번길8-7",
        "purpose": "쓰레기단속",
        "latitude": 35.15634336,
        "longitude": 126.926523,
        "storage_days": 0,
        "manager_phone": "062-608-2513"
    },
    {
        "id": 153060,
        "sido": "광주",
        "sigungu": "동구",
        "eupmyeondong": "경양로321번길",
        "address": "광주광역시 동구 경양로321번길 21",
        "purpose": "쓰레기단속",
        "latitude": 35.15543985,
        "longitude": 126.9230732,
        "storage_days": 0,
        "manager_phone": "062-608-2513"
    },
    {
        "id": 153061,
        "sido": "광주",
        "sigungu": "동구",
        "eupmyeondong": "밤실로136번길",
        "address": "광주광역시 동구 밤실로136번길 4-1",
        "purpose": "쓰레기단속",
        "latitude": 35.1594746,
        "longitude": 126.9359022,
        "storage_days": 0,
        "manager_phone": "062-608-2513"
    },
    {
        "id": 153062,
        "sido": "광주",
        "sigungu": "동구",
        "eupmyeondong": "밤실로",
        "address": "광주광역시 동구 밤실로 89",
        "purpose": "쓰레기단속",
        "latitude": 35.15545111,
        "longitude": 126.9362477,
        "storage_days": 0,
        "manager_phone": "062-608-2513"
    },
    {
        "id": 153063,
        "sido": "광주",
        "sigungu": "동구",
        "eupmyeondong": "필문대로273번길",
        "address": "광주광역시 동구 필문대로273번길 29",
        "purpose": "쓰레기단속",
        "latitude": 35.14582156,
        "longitude": 126.9307552,
        "storage_days": 0,
        "manager_phone": "062-608-2513"
    },
    {
        "id": 153064,
        "sido": "광주",
        "sigungu": "동구",
        "eupmyeondong": "필문대로263번길",
        "address": "광주광역시 동구 필문대로263번길 29-15 (태양빌 앞)",
        "purpose": "쓰레기단속",
        "latitude": 35.14781221,
        "longitude": 126.9315304,
        "storage_days": 0,
        "manager_phone": "062-608-2513"
    },
    {
        "id": 153065,
        "sido": "광주",
        "sigungu": "동구",
        "eupmyeondong": "필문대로287번길",
        "address": "광주광역시 동구 필문대로287번길 23",
        "purpose": "쓰레기단속",
        "latitude": 35.14502398,
        "longitude": 126.9294083,
        "storage_days": 0,
        "manager_phone": "062-608-2513"
    },
    {
        "id": 153066,
        "sido": "광주",
        "sigungu": "동구",
        "eupmyeondong": "동명로110번길",
        "address": "광주광역시 동구 동명로110번길 13 (풍경, 지산교회) 앞",
        "purpose": "쓰레기단속",
        "latitude": 35.1495722,
        "longitude": 126.9324859,
        "storage_days": 0,
        "manager_phone": "062-608-2513"
    },
    {
        "id": 153067,
        "sido": "광주",
        "sigungu": "동구",
        "eupmyeondong": "동명로98번길",
        "address": "광주광역시 동구 동명로98번길 13(다우리원룸 앞)",
        "purpose": "쓰레기단속",
        "latitude": 35.14970841,
        "longitude": 126.9310679,
        "storage_days": 0,
        "manager_phone": "062-608-2513"
    },
    {
        "id": 153068,
        "sido": "광주",
        "sigungu": "동구",
        "eupmyeondong": "필문대로191번길",
        "address": "광주광역시 동구 필문대로191번길 25-2 (행복건강원 앞)",
        "purpose": "쓰레기단속",
        "latitude": 35.15345993,
        "longitude": 126.9344143,
        "storage_days": 0,
        "manager_phone": "062-608-2513"
    },
    {
        "id": 153069,
        "sido": "광주",
        "sigungu": "동구",
        "eupmyeondong": "지호로",
        "address": "광주광역시 동구 지호로 35 (지산동) 에이원마트 앞",
        "purpose": "쓰레기단속",
        "latitude": 35.14808338,
        "longitude": 126.9328954,
        "storage_days": 0,
        "manager_phone": "062-608-2513"
    },
    {
        "id": 153070,
        "sido": "광주",
        "sigungu": "동구",
        "eupmyeondong": "지산로52번길15-4",
        "address": "광주광역시 동구 지산로52번길15-4",
        "purpose": "쓰레기단속",
        "latitude": 35.14798674,
        "longitude": 126.934186,
        "storage_days": 0,
        "manager_phone": "062-608-2513"
    },
    {
        "id": 153071,
        "sido": "광주",
        "sigungu": "동구",
        "eupmyeondong": "지호로52번길",
        "address": "광주광역시 동구 지호로52번길 6(상우빌 앞)",
        "purpose": "쓰레기단속",
        "latitude": 35.14722277,
        "longitude": 126.934889,
        "storage_days": 0,
        "manager_phone": "062-608-2513"
    },
    {
        "id": 153072,
        "sido": "광주",
        "sigungu": "동구",
        "eupmyeondong": "밤실로3번길",
        "address": "광주광역시 동구 밤실로3번길 7(대온빌라)",
        "purpose": "쓰레기단속",
        "latitude": 35.14806349,
        "longitude": 126.9361174,
        "storage_days": 0,
        "manager_phone": "062-608-2513"
    },
    {
        "id": 153073,
        "sido": "광주",
        "sigungu": "동구",
        "eupmyeondong": "문화전당로23번길",
        "address": "광주광역시 동구 문화전당로23번길 10(남동) 구 황금파출소 앞",
        "purpose": "쓰레기단속",
        "latitude": 35.14448359,
        "longitude": 126.9185887,
        "storage_days": 0,
        "manager_phone": "062-608-2513"
    },
    {
        "id": 153074,
        "sido": "광주",
        "sigungu": "동구",
        "eupmyeondong": "백서로198번길",
        "address": "광주광역시 동구 백서로198번길 7 (서석동) 장애인복지관 옆",
        "purpose": "쓰레기단속",
        "latitude": 35.14579366,
        "longitude": 126.9262471,
        "storage_days": 0,
        "manager_phone": "062-608-2513"
    },
    {
        "id": 153075,
        "sido": "광주",
        "sigungu": "동구",
        "eupmyeondong": "백서로",
        "address": "광주광역시 동구 백서로 197",
        "purpose": "쓰레기단속",
        "latitude": 35.14563794,
        "longitude": 126.9251192,
        "storage_days": 0,
        "manager_phone": "062-608-2513"
    },
    {
        "id": 153076,
        "sido": "광주",
        "sigungu": "동구",
        "eupmyeondong": "백서로175번길",
        "address": "광주광역시 동구 백서로175번길 9-2",
        "purpose": "쓰레기단속",
        "latitude": 35.14455876,
        "longitude": 126.9232766,
        "storage_days": 0,
        "manager_phone": "062-608-2513"
    },
    {
        "id": 153077,
        "sido": "광주",
        "sigungu": "동구",
        "eupmyeondong": "제봉로",
        "address": "광주광역시 동구 제봉로 70",
        "purpose": "쓰레기단속",
        "latitude": 35.14462621,
        "longitude": 126.9216349,
        "storage_days": 0,
        "manager_phone": "062-608-2513"
    },
    {
        "id": 153078,
        "sido": "광주",
        "sigungu": "동구",
        "eupmyeondong": "남문로693번길",
        "address": "광주광역시 동구 남문로693번길 2-1(학동) 양스랑 헤어",
        "purpose": "쓰레기단속",
        "latitude": 35.1325304,
        "longitude": 126.9282253,
        "storage_days": 0,
        "manager_phone": "062-608-2513"
    },
    {
        "id": 153079,
        "sido": "광주",
        "sigungu": "동구",
        "eupmyeondong": "양림로119번길11(학동",
        "address": "광주광역시 동구 양림로119번길11(학동 병무청 맞은편)",
        "purpose": "쓰레기단속",
        "latitude": 35.14072405,
        "longitude": 126.9200058,
        "storage_days": 0,
        "manager_phone": "062-608-2513"
    },
    {
        "id": 153080,
        "sido": "광주",
        "sigungu": "동구",
        "eupmyeondong": "의재로26번길",
        "address": "광주광역시 동구 의재로26번길 3(학동) 삼익세라믹 후문 앞",
        "purpose": "쓰레기단속",
        "latitude": 35.13245965,
        "longitude": 126.9305646,
        "storage_days": 0,
        "manager_phone": "062-608-2513"
    },
    {
        "id": 153081,
        "sido": "광주",
        "sigungu": "동구",
        "eupmyeondong": "의재로33번길",
        "address": "광주광역시 동구 의재로33번길 6-2",
        "purpose": "쓰레기단속",
        "latitude": 35.13328234,
        "longitude": 126.9317006,
        "storage_days": 0,
        "manager_phone": "062-608-2513"
    },
    {
        "id": 153082,
        "sido": "광주",
        "sigungu": "동구",
        "eupmyeondong": "의재로43번길",
        "address": "광주광역시 동구 의재로43번길 13",
        "purpose": "쓰레기단속",
        "latitude": 35.13349221,
        "longitude": 126.9330478,
        "storage_days": 0,
        "manager_phone": "062-608-2513"
    },
    {
        "id": 153083,
        "sido": "광주",
        "sigungu": "동구",
        "eupmyeondong": "학소로106번길",
        "address": "광주광역시 동구 학소로106번길 5 (축산도매센터 맞은편)",
        "purpose": "쓰레기단속",
        "latitude": 35.12934619,
        "longitude": 126.933512,
        "storage_days": 0,
        "manager_phone": "062-608-2513"
    },
    {
        "id": 153084,
        "sido": "광주",
        "sigungu": "동구",
        "eupmyeondong": "소태길",
        "address": "광주광역시 동구 소태길 23-1 (소태동) 앞",
        "purpose": "쓰레기단속",
        "latitude": 35.12062901,
        "longitude": 126.9350111,
        "storage_days": 0,
        "manager_phone": "062-608-2513"
    },
    {
        "id": 153085,
        "sido": "광주",
        "sigungu": "동구",
        "eupmyeondong": "선교로",
        "address": "광주광역시 동구 선교로 94",
        "purpose": "쓰레기단속",
        "latitude": 35.09154632,
        "longitude": 126.957169,
        "storage_days": 0,
        "manager_phone": "062-608-2513"
    },
    {
        "id": 153086,
        "sido": "광주",
        "sigungu": "동구",
        "eupmyeondong": "천변우로",
        "address": "광주광역시 동구 천변우로 499(학동) 행남자기 건너편",
        "purpose": "쓰레기단속",
        "latitude": 35.13869076,
        "longitude": 126.9202887,
        "storage_days": 0,
        "manager_phone": "062-608-2513"
    },
    {
        "id": 153087,
        "sido": "광주",
        "sigungu": "동구",
        "eupmyeondong": "중앙로",
        "address": "광주광역시 동구 중앙로 233",
        "purpose": "쓰레기단속",
        "latitude": 35.15321975,
        "longitude": 126.918839,
        "storage_days": 0,
        "manager_phone": "062-608-2513"
    },
    {
        "id": 153088,
        "sido": "광주",
        "sigungu": "동구",
        "eupmyeondong": "경양로",
        "address": "광주광역시 동구 경양로 271",
        "purpose": "쓰레기단속",
        "latitude": 35.15558173,
        "longitude": 126.9194732,
        "storage_days": 0,
        "manager_phone": "062-608-2513"
    },
    {
        "id": 153089,
        "sido": "광주",
        "sigungu": "동구",
        "eupmyeondong": "양림로119번길",
        "address": "광주광역시 동구 양림로119번길 8",
        "purpose": "쓰레기단속",
        "latitude": 35.14063063,
        "longitude": 126.9204887,
        "storage_days": 0,
        "manager_phone": "062-608-2513"
    },
    {
        "id": 153090,
        "sido": "광주",
        "sigungu": "동구",
        "eupmyeondong": "의재로",
        "address": "광주광역시 동구 의재로 53, 학운동주민센터 (학동)",
        "purpose": "생활방범",
        "latitude": 35.13247214,
        "longitude": 126.9335446,
        "storage_days": 30,
        "manager_phone": "062-608-3804"
    },
    {
        "id": 153091,
        "sido": "광주",
        "sigungu": "동구",
        "eupmyeondong": "계림로30번길",
        "address": "광주광역시 동구 계림로30번길 15 (계림동, 푸른길 두산위브)",
        "purpose": "생활방범",
        "latitude": 35.157432,
        "longitude": 126.924621,
        "storage_days": 30,
        "manager_phone": "062-608-3594"
    },
    {
        "id": 153092,
        "sido": "광주",
        "sigungu": "동구",
        "eupmyeondong": "화산로",
        "address": "광주광역시 동구 화산로 361, 지원2동주민센터 (용산동)",
        "purpose": "다목적",
        "latitude": 35.120395,
        "longitude": 126.932854,
        "storage_days": 30,
        "manager_phone": "062-608-3864"
    },
    {
        "id": 153093,
        "sido": "광주",
        "sigungu": "동구",
        "eupmyeondong": "천변우로",
        "address": "광주광역시 동구 천변우로 559-7, 학동주민센터 (학동)",
        "purpose": "다목적",
        "latitude": 35.134425,
        "longitude": 126.924189,
        "storage_days": 30,
        "manager_phone": "062-608-3774"
    },
    {
        "id": 153094,
        "sido": "광주",
        "sigungu": "동구",
        "eupmyeondong": "동명로26번길",
        "address": "광주광역시 동구 동명로26번길 13, 동명동주민센터 (동명동)",
        "purpose": "생활방범",
        "latitude": 35.151174,
        "longitude": 126.925198,
        "storage_days": 30,
        "manager_phone": "062-608-3535"
    },
    {
        "id": 153095,
        "sido": "광주",
        "sigungu": "동구",
        "eupmyeondong": "충장로58번길",
        "address": "광주광역시 동구 충장로58번길 16, 충장동 주민센터 (충장로4가)",
        "purpose": "생활방범",
        "latitude": 35.149187,
        "longitude": 126.9128,
        "storage_days": 30,
        "manager_phone": "062-608-3504"
    },
    {
        "id": 153096,
        "sido": "광주",
        "sigungu": "동구",
        "eupmyeondong": "서남로",
        "address": "광주광역시 동구 서남로 14",
        "purpose": "다목적",
        "latitude": 35.14495168,
        "longitude": 126.9231621,
        "storage_days": 20,
        "manager_phone": "062-608-3744"
    },
    {
        "id": 153097,
        "sido": "광주",
        "sigungu": "동구",
        "eupmyeondong": "백서로",
        "address": "광주광역시 동구 백서로 211",
        "purpose": "쓰레기단속",
        "latitude": 35.14671643,
        "longitude": 126.9258688,
        "storage_days": 30,
        "manager_phone": "062-608-3751"
    },
    {
        "id": 153098,
        "sido": "광주",
        "sigungu": "동구",
        "eupmyeondong": "필문대로287번길",
        "address": "광주광역시 동구 필문대로287번길 14",
        "purpose": "쓰레기단속",
        "latitude": 35.14523613,
        "longitude": 126.9284336,
        "storage_days": 30,
        "manager_phone": "062-608-3751"
    },
    {
        "id": 153099,
        "sido": "광주",
        "sigungu": "동구",
        "eupmyeondong": "문화전당로23번길7",
        "address": "광주광역시 동구 문화전당로23번길7",
        "purpose": "쓰레기단속",
        "latitude": 35.14424573,
        "longitude": 126.9187426,
        "storage_days": 30,
        "manager_phone": "062-608-3751"
    },
    {
        "id": 153100,
        "sido": "광주",
        "sigungu": "동구",
        "eupmyeondong": "백서로198번길",
        "address": "광주광역시 동구 백서로198번길 7",
        "purpose": "쓰레기단속",
        "latitude": 35.14579366,
        "longitude": 126.9262471,
        "storage_days": 30,
        "manager_phone": "062-608-3751"
    },
    {
        "id": 153101,
        "sido": "광주",
        "sigungu": "동구",
        "eupmyeondong": "백서로",
        "address": "광주광역시 동구 백서로 197",
        "purpose": "쓰레기단속",
        "latitude": 35.14563794,
        "longitude": 126.9251192,
        "storage_days": 30,
        "manager_phone": "062-608-3751"
    },
    {
        "id": 153102,
        "sido": "광주",
        "sigungu": "동구",
        "eupmyeondong": "서남로",
        "address": "광주광역시 동구 서남로 14",
        "purpose": "쓰레기단속",
        "latitude": 35.14495168,
        "longitude": 126.9231621,
        "storage_days": 30,
        "manager_phone": "062-608-3751"
    },
    {
        "id": 153103,
        "sido": "광주",
        "sigungu": "동구",
        "eupmyeondong": "제봉로",
        "address": "광주광역시 동구 제봉로 70",
        "purpose": "쓰레기단속",
        "latitude": 35.14462621,
        "longitude": 126.9216349,
        "storage_days": 30,
        "manager_phone": "062-608-3751"
    },
    {
        "id": 153104,
        "sido": "광주",
        "sigungu": "동구",
        "eupmyeondong": "지산로",
        "address": "광주광역시 동구 지산로 57",
        "purpose": "다목적",
        "latitude": 35.14900627,
        "longitude": 126.9327191,
        "storage_days": 30,
        "manager_phone": "062-608-3684"
    },
    {
        "id": 153105,
        "sido": "광주",
        "sigungu": "동구",
        "eupmyeondong": "남문로",
        "address": "광주광역시 동구 남문로 600-3",
        "purpose": "시설물관리",
        "latitude": 35.12474134,
        "longitude": 126.9322738,
        "storage_days": 50,
        "manager_phone": "062-608-3834"
    },
    {
        "id": 153106,
        "sido": "광주",
        "sigungu": "동구",
        "eupmyeondong": "경양로247번길",
        "address": "광주광역시 동구 경양로247번길 26",
        "purpose": "시설물관리",
        "latitude": 35.15852751,
        "longitude": 126.9196723,
        "storage_days": 30,
        "manager_phone": "062-608-3565"
    },
    {
        "id": 153107,
        "sido": "광주",
        "sigungu": "동구",
        "eupmyeondong": "경양로247번길",
        "address": "광주광역시 동구 경양로247번길 26",
        "purpose": "시설물관리",
        "latitude": 35.15852751,
        "longitude": 126.9196723,
        "storage_days": 30,
        "manager_phone": "062-608-3565"
    },
    {
        "id": 153108,
        "sido": "광주",
        "sigungu": "동구",
        "eupmyeondong": "경양로247번길",
        "address": "광주광역시 동구 경양로247번길 26",
        "purpose": "시설물관리",
        "latitude": 35.15852751,
        "longitude": 126.9196723,
        "storage_days": 30,
        "manager_phone": "062-608-3565"
    },
    {
        "id": 153109,
        "sido": "광주",
        "sigungu": "동구",
        "eupmyeondong": "경양로247번길",
        "address": "광주광역시 동구 경양로247번길 26",
        "purpose": "시설물관리",
        "latitude": 35.15852751,
        "longitude": 126.9196723,
        "storage_days": 30,
        "manager_phone": "062-608-3565"
    },
    {
        "id": 153110,
        "sido": "광주",
        "sigungu": "동구",
        "eupmyeondong": "경양로271",
        "address": "광주광역시 동구 경양로271",
        "purpose": "쓰레기단속",
        "latitude": 35.15558173,
        "longitude": 126.9194732,
        "storage_days": 0,
        "manager_phone": "062-608-3574"
    },
    {
        "id": 153111,
        "sido": "광주",
        "sigungu": "동구",
        "eupmyeondong": "경양로235번길",
        "address": "광주광역시 동구 경양로235번길 14-1",
        "purpose": "쓰레기단속",
        "latitude": 35.15858756,
        "longitude": 126.9178239,
        "storage_days": 0,
        "manager_phone": "062-608-3574"
    },
    {
        "id": 153112,
        "sido": "광주",
        "sigungu": "동구",
        "eupmyeondong": "구성로238번길",
        "address": "광주광역시 동구 구성로238번길 18",
        "purpose": "쓰레기단속",
        "latitude": 35.15469789,
        "longitude": 126.9187146,
        "storage_days": 0,
        "manager_phone": "062-608-3574"
    },
    {
        "id": 153113,
        "sido": "광주",
        "sigungu": "동구",
        "eupmyeondong": "지호로",
        "address": "광주광역시 동구 지호로 35",
        "purpose": "쓰레기단속",
        "latitude": 35.14808338,
        "longitude": 126.9328954,
        "storage_days": 0,
        "manager_phone": "062-608-3713"
    },
    {
        "id": 153114,
        "sido": "광주",
        "sigungu": "동구",
        "eupmyeondong": "지산로52번길",
        "address": "광주광역시 동구 지산로52번길 15-4",
        "purpose": "쓰레기단속",
        "latitude": 35.14798674,
        "longitude": 126.934186,
        "storage_days": 0,
        "manager_phone": "062-608-3713"
    },
    {
        "id": 153115,
        "sido": "광주",
        "sigungu": "동구",
        "eupmyeondong": "지호로52번길",
        "address": "광주광역시 동구 지호로52번길 6",
        "purpose": "쓰레기단속",
        "latitude": 35.14722277,
        "longitude": 126.934889,
        "storage_days": 0,
        "manager_phone": "062-608-3713"
    },
    {
        "id": 153116,
        "sido": "광주",
        "sigungu": "동구",
        "eupmyeondong": "밤실로3번길",
        "address": "광주광역시 동구 밤실로3번길 7",
        "purpose": "쓰레기단속",
        "latitude": 35.14806349,
        "longitude": 126.9361174,
        "storage_days": 0,
        "manager_phone": "062-608-3713"
    },
    {
        "id": 153117,
        "sido": "광주",
        "sigungu": "동구",
        "eupmyeondong": "지호로",
        "address": "광주광역시 동구 지호로 65-1",
        "purpose": "쓰레기단속",
        "latitude": 35.14781106,
        "longitude": 126.936021,
        "storage_days": 0,
        "manager_phone": "062-608-3713"
    },
    {
        "id": 153118,
        "sido": "광주",
        "sigungu": "동구",
        "eupmyeondong": "밤실로",
        "address": "광주광역시 동구 밤실로 11-2",
        "purpose": "쓰레기단속",
        "latitude": 35.14875964,
        "longitude": 126.9367007,
        "storage_days": 0,
        "manager_phone": "062-608-3713"
    },
    {
        "id": 153119,
        "sido": "광주",
        "sigungu": "동구",
        "eupmyeondong": "무등로449번길",
        "address": "광주광역시 동구 무등로449번길 12",
        "purpose": "시설물관리",
        "latitude": 35.15729046,
        "longitude": 126.9307367,
        "storage_days": 0,
        "manager_phone": "062-608-3624"
    },
    {
        "id": 153120,
        "sido": "광주",
        "sigungu": "동구",
        "eupmyeondong": "구성로204번길",
        "address": "광주광역시 동구 구성로204번길 6-1(동구 보훈회관 앞)",
        "purpose": "쓰레기단속",
        "latitude": 35.15313422,
        "longitude": 126.9150506,
        "storage_days": 0,
        "manager_phone": "062-608-2513"
    },
    {
        "id": 153121,
        "sido": "광주",
        "sigungu": "동구",
        "eupmyeondong": "제봉로222번길",
        "address": "광주광역시 동구 제봉로222번길 6-11",
        "purpose": "쓰레기단속",
        "latitude": 35.15509168,
        "longitude": 126.9146227,
        "storage_days": 0,
        "manager_phone": "062-608-2513"
    },
    {
        "id": 153122,
        "sido": "광주",
        "sigungu": "동구",
        "eupmyeondong": "동계천로6번길",
        "address": "광주광역시 동구 동계천로6번길 11-14",
        "purpose": "쓰레기단속",
        "latitude": 35.15601084,
        "longitude": 126.9143057,
        "storage_days": 0,
        "manager_phone": "062-608-2513"
    },
    {
        "id": 153123,
        "sido": "광주",
        "sigungu": "동구",
        "eupmyeondong": "독립로226번길",
        "address": "광주광역시 동구 독립로226번길 25 (제일오피스텔 뒤)",
        "purpose": "쓰레기단속",
        "latitude": 35.15072965,
        "longitude": 126.9103955,
        "storage_days": 0,
        "manager_phone": "062-608-2513"
    },
    {
        "id": 153124,
        "sido": "광주",
        "sigungu": "동구",
        "eupmyeondong": "금남로",
        "address": "광주광역시 동구 금남로 250-3",
        "purpose": "쓰레기단속",
        "latitude": 35.14743296,
        "longitude": 126.9187614,
        "storage_days": 0,
        "manager_phone": "062-608-2513"
    },
    {
        "id": 153125,
        "sido": "광주",
        "sigungu": "동구",
        "eupmyeondong": "서석로",
        "address": "광주광역시 동구 서석로 23-17",
        "purpose": "쓰레기단속",
        "latitude": 35.14620518,
        "longitude": 126.9159313,
        "storage_days": 0,
        "manager_phone": "062-608-2513"
    },
    {
        "id": 153126,
        "sido": "광주",
        "sigungu": "동구",
        "eupmyeondong": "제봉로",
        "address": "광주광역시 동구 제봉로 166(장동) KT광주지사 앞",
        "purpose": "쓰레기단속",
        "latitude": 35.15213825,
        "longitude": 126.9190464,
        "storage_days": 0,
        "manager_phone": "062-608-2513"
    },
    {
        "id": 153127,
        "sido": "광주",
        "sigungu": "동구",
        "eupmyeondong": "동계천로95번길",
        "address": "광주광역시 동구 동계천로95번길 12",
        "purpose": "쓰레기단속",
        "latitude": 35.15236745,
        "longitude": 126.9221762,
        "storage_days": 0,
        "manager_phone": "062-608-2513"
    },
    {
        "id": 153128,
        "sido": "광주",
        "sigungu": "동구",
        "eupmyeondong": "필문대로253번길",
        "address": "광주광역시 동구 필문대로253번길 9-2(동명동) 그린빌 앞 (조대명품타운 부근)",
        "purpose": "쓰레기단속",
        "latitude": 35.14827641,
        "longitude": 126.9299586,
        "storage_days": 0,
        "manager_phone": "062-608-2513"
    },
    {
        "id": 153129,
        "sido": "광주",
        "sigungu": "동구",
        "eupmyeondong": "동계천로111",
        "address": "광주광역시 동구 동계천로111",
        "purpose": "쓰레기단속",
        "latitude": 35.15087516,
        "longitude": 126.9227439,
        "storage_days": 0,
        "manager_phone": "062-608-2513"
    },
    {
        "id": 153130,
        "sido": "광주",
        "sigungu": "동구",
        "eupmyeondong": "동명로98번길",
        "address": "광주광역시 동구 동명로98번길 20-2(동명동) 금광하이빌 앞",
        "purpose": "쓰레기단속",
        "latitude": 35.14937999,
        "longitude": 126.9304975,
        "storage_days": 0,
        "manager_phone": "062-608-2513"
    },
    {
        "id": 153131,
        "sido": "광주",
        "sigungu": "동구",
        "eupmyeondong": "필문대로263번길",
        "address": "광주광역시 동구 필문대로263번길 4",
        "purpose": "쓰레기단속",
        "latitude": 35.14748968,
        "longitude": 126.9286862,
        "storage_days": 0,
        "manager_phone": "062-608-2513"
    },
    {
        "id": 153132,
        "sido": "광주",
        "sigungu": "동구",
        "eupmyeondong": "동계로1번길",
        "address": "광주광역시 동구 동계로1번길 5",
        "purpose": "쓰레기단속",
        "latitude": 35.15192475,
        "longitude": 126.9233926,
        "storage_days": 0,
        "manager_phone": "062-608-2513"
    },
    {
        "id": 153133,
        "sido": "광주",
        "sigungu": "동구",
        "eupmyeondong": "경양로235번길",
        "address": "광주광역시 동구 경양로235번길 14-1 (호남상사 뒤)",
        "purpose": "쓰레기단속",
        "latitude": 35.15858756,
        "longitude": 126.9178239,
        "storage_days": 0,
        "manager_phone": "062-608-2513"
    },
    {
        "id": 153134,
        "sido": "광주",
        "sigungu": "동구",
        "eupmyeondong": "무등로333번길",
        "address": "광주광역시 동구 무등로333번길 11",
        "purpose": "쓰레기단속",
        "latitude": 35.16261582,
        "longitude": 126.9192819,
        "storage_days": 0,
        "manager_phone": "062-608-2513"
    },
    {
        "id": 153135,
        "sido": "광주",
        "sigungu": "광산구",
        "eupmyeondong": "상무대로",
        "address": "광주광역시 광산구 상무대로 256",
        "purpose": "교통단속",
        "latitude": 35.14131187,
        "longitude": 126.7949063,
        "storage_days": 0,
        "manager_phone": "062-960-8787"
    },
    {
        "id": 153136,
        "sido": "광주",
        "sigungu": "광산구",
        "eupmyeondong": "신창로",
        "address": "광주광역시 광산구 신창로 69",
        "purpose": "교통단속",
        "latitude": 35.19146887,
        "longitude": 126.8367664,
        "storage_days": 0,
        "manager_phone": "062-960-8787"
    },
    {
        "id": 153137,
        "sido": "광주",
        "sigungu": "광산구",
        "eupmyeondong": "사암로",
        "address": "광주광역시 광산구 사암로 205",
        "purpose": "교통단속",
        "latitude": 35.16278325,
        "longitude": 126.8079526,
        "storage_days": 0,
        "manager_phone": "062-960-8787"
    },
    {
        "id": 153138,
        "sido": "광주",
        "sigungu": "광산구",
        "eupmyeondong": "수완동",
        "address": "광주광역시 광산구 수완동 1776",
        "purpose": "교통단속",
        "latitude": 35.19818247,
        "longitude": 126.8234388,
        "storage_days": 0,
        "manager_phone": "062-960-8787"
    },
    {
        "id": 153139,
        "sido": "광주",
        "sigungu": "광산구",
        "eupmyeondong": "송정동",
        "address": "광주광역시 광산구 송정동 930-13",
        "purpose": "교통단속",
        "latitude": 35.13443712,
        "longitude": 126.7878517,
        "storage_days": 0,
        "manager_phone": "062-960-8787"
    },
    {
        "id": 153140,
        "sido": "광주",
        "sigungu": "광산구",
        "eupmyeondong": "송정동",
        "address": "광주광역시 광산구 송정동 1005-4",
        "purpose": "교통단속",
        "latitude": 35.13648128,
        "longitude": 126.788605,
        "storage_days": 0,
        "manager_phone": "062-960-8787"
    },
    {
        "id": 153141,
        "sido": "광주",
        "sigungu": "광산구",
        "eupmyeondong": "도산동",
        "address": "광주광역시 광산구 도산동 1148-8",
        "purpose": "교통단속",
        "latitude": 35.12680335,
        "longitude": 126.7909368,
        "storage_days": 0,
        "manager_phone": "062-960-8787"
    },
    {
        "id": 153142,
        "sido": "광주",
        "sigungu": "광산구",
        "eupmyeondong": "도산동",
        "address": "광주광역시 광산구 도산동 877-13",
        "purpose": "교통단속",
        "latitude": 35.1322897,
        "longitude": 126.79689,
        "storage_days": 0,
        "manager_phone": "062-960-8787"
    },
    {
        "id": 153143,
        "sido": "광주",
        "sigungu": "광산구",
        "eupmyeondong": "도산동",
        "address": "광주광역시 광산구 도산동 1308",
        "purpose": "교통단속",
        "latitude": 35.1309379,
        "longitude": 126.7876733,
        "storage_days": 0,
        "manager_phone": "062-960-8787"
    },
    {
        "id": 153144,
        "sido": "광주",
        "sigungu": "광산구",
        "eupmyeondong": "신촌동",
        "address": "광주광역시 광산구 신촌동 1198-3",
        "purpose": "교통단속",
        "latitude": 35.14463575,
        "longitude": 126.8053587,
        "storage_days": 0,
        "manager_phone": "062-960-8787"
    },
    {
        "id": 153145,
        "sido": "광주",
        "sigungu": "광산구",
        "eupmyeondong": "월곡동",
        "address": "광주광역시 광산구 월곡동 708",
        "purpose": "교통단속",
        "latitude": 35.17507906,
        "longitude": 126.8112514,
        "storage_days": 0,
        "manager_phone": "062-960-8787"
    },
    {
        "id": 153146,
        "sido": "광주",
        "sigungu": "광산구",
        "eupmyeondong": "운남동",
        "address": "광주광역시 광산구 운남동 375-5",
        "purpose": "교통단속",
        "latitude": 35.17605305,
        "longitude": 126.823248,
        "storage_days": 0,
        "manager_phone": "062-960-8787"
    },
    {
        "id": 153147,
        "sido": "광주",
        "sigungu": "광산구",
        "eupmyeondong": "운남동",
        "address": "광주광역시 광산구 운남동 796",
        "purpose": "교통단속",
        "latitude": 35.17516603,
        "longitude": 126.8141575,
        "storage_days": 0,
        "manager_phone": "062-960-8787"
    },
    {
        "id": 153148,
        "sido": "광주",
        "sigungu": "광산구",
        "eupmyeondong": "흑석동",
        "address": "광주광역시 광산구 흑석동 616",
        "purpose": "교통단속",
        "latitude": 35.18306999,
        "longitude": 126.8135576,
        "storage_days": 0,
        "manager_phone": "062-960-8787"
    },
    {
        "id": 153149,
        "sido": "광주",
        "sigungu": "광산구",
        "eupmyeondong": "월계동",
        "address": "광주광역시 광산구 월계동 853",
        "purpose": "교통단속",
        "latitude": 35.22004575,
        "longitude": 126.8368808,
        "storage_days": 0,
        "manager_phone": "062-960-8787"
    },
    {
        "id": 153150,
        "sido": "광주",
        "sigungu": "광산구",
        "eupmyeondong": "월계동",
        "address": "광주광역시 광산구 월계동 853",
        "purpose": "교통단속",
        "latitude": 35.22004575,
        "longitude": 126.8368808,
        "storage_days": 0,
        "manager_phone": "062-960-8787"
    },
    {
        "id": 153151,
        "sido": "광주",
        "sigungu": "광산구",
        "eupmyeondong": "산월동",
        "address": "광주광역시 광산구 산월동 891",
        "purpose": "교통단속",
        "latitude": 35.20881143,
        "longitude": 126.8470454,
        "storage_days": 0,
        "manager_phone": "062-960-8787"
    },
    {
        "id": 153152,
        "sido": "광주",
        "sigungu": "광산구",
        "eupmyeondong": "산월동",
        "address": "광주광역시 광산구 산월동 891",
        "purpose": "교통단속",
        "latitude": 35.20881143,
        "longitude": 126.8470454,
        "storage_days": 0,
        "manager_phone": "062-960-8787"
    },
    {
        "id": 153153,
        "sido": "광주",
        "sigungu": "광산구",
        "eupmyeondong": "옥동",
        "address": "광주광역시 광산구 옥동 638-8",
        "purpose": "교통단속",
        "latitude": 35.12599419,
        "longitude": 126.7567312,
        "storage_days": 0,
        "manager_phone": "062-960-8787"
    },
    {
        "id": 153154,
        "sido": "광주",
        "sigungu": "광산구",
        "eupmyeondong": "하산동",
        "address": "광주광역시 광산구 하산동 140-2",
        "purpose": "교통단속",
        "latitude": 35.09841569,
        "longitude": 126.7736234,
        "storage_days": 0,
        "manager_phone": "062-960-8787"
    },
    {
        "id": 153155,
        "sido": "광주",
        "sigungu": "광산구",
        "eupmyeondong": "도덕동",
        "address": "광주광역시 광산구 도덕동 330-6",
        "purpose": "교통단속",
        "latitude": 35.1641091,
        "longitude": 126.7013732,
        "storage_days": 0,
        "manager_phone": "062-960-8787"
    },
    {
        "id": 153156,
        "sido": "광주",
        "sigungu": "광산구",
        "eupmyeondong": "도천동",
        "address": "광주광역시 광산구 도천동 277-19",
        "purpose": "교통단속",
        "latitude": 35.2103308,
        "longitude": 126.8258684,
        "storage_days": 0,
        "manager_phone": "062-960-8787"
    },
    {
        "id": 153157,
        "sido": "광주",
        "sigungu": "광산구",
        "eupmyeondong": "도천동",
        "address": "광주광역시 광산구 도천동 277-19",
        "purpose": "교통단속",
        "latitude": 35.2103308,
        "longitude": 126.8258684,
        "storage_days": 0,
        "manager_phone": "062-960-8787"
    },
    {
        "id": 153158,
        "sido": "광주",
        "sigungu": "광산구",
        "eupmyeondong": "수완동",
        "address": "광주광역시 광산구 수완동 1800",
        "purpose": "교통단속",
        "latitude": 35.1946812,
        "longitude": 126.8268942,
        "storage_days": 0,
        "manager_phone": "062-960-8787"
    },
    {
        "id": 153159,
        "sido": "광주",
        "sigungu": "광산구",
        "eupmyeondong": "수완동",
        "address": "광주광역시 광산구 수완동 1834",
        "purpose": "교통단속",
        "latitude": 35.18633293,
        "longitude": 126.8256822,
        "storage_days": 0,
        "manager_phone": "062-960-8787"
    },
    {
        "id": 153160,
        "sido": "광주",
        "sigungu": "광산구",
        "eupmyeondong": "월계동",
        "address": "광주광역시 광산구 월계동 861",
        "purpose": "교통단속",
        "latitude": 35.21144809,
        "longitude": 126.8413228,
        "storage_days": 0,
        "manager_phone": "062-960-8787"
    },
    {
        "id": 153161,
        "sido": "광주",
        "sigungu": "광산구",
        "eupmyeondong": "신가동",
        "address": "광주광역시 광산구 신가동 980",
        "purpose": "교통단속",
        "latitude": 35.18620522,
        "longitude": 126.8340376,
        "storage_days": 0,
        "manager_phone": "062-960-8787"
    },
    {
        "id": 153162,
        "sido": "광주",
        "sigungu": "광산구",
        "eupmyeondong": "월곡동",
        "address": "광주광역시 광산구 월곡동 676",
        "purpose": "교통단속",
        "latitude": 35.16442234,
        "longitude": 126.8115513,
        "storage_days": 0,
        "manager_phone": "062-960-8787"
    },
    {
        "id": 153163,
        "sido": "광주",
        "sigungu": "광산구",
        "eupmyeondong": "쌍암동",
        "address": "광주광역시 광산구 쌍암동 691",
        "purpose": "교통단속",
        "latitude": 35.22193631,
        "longitude": 126.8473737,
        "storage_days": 0,
        "manager_phone": "062-960-8787"
    },
    {
        "id": 153164,
        "sido": "광주",
        "sigungu": "광산구",
        "eupmyeondong": "상무대로",
        "address": "광주광역시 광산구 상무대로 209-1",
        "purpose": "교통단속",
        "latitude": 35.1382053,
        "longitude": 126.7916675,
        "storage_days": 0,
        "manager_phone": "062-960-8787"
    },
    {
        "id": 153165,
        "sido": "광주",
        "sigungu": "광산구",
        "eupmyeondong": "신가동",
        "address": "광주광역시 광산구 신가동 971",
        "purpose": "교통단속",
        "latitude": 35.18235241,
        "longitude": 126.8326183,
        "storage_days": 0,
        "manager_phone": "062-960-8787"
    },
    {
        "id": 153166,
        "sido": "광주",
        "sigungu": "광산구",
        "eupmyeondong": "신가동",
        "address": "광주광역시 광산구 신가동 970",
        "purpose": "교통단속",
        "latitude": 35.18256378,
        "longitude": 126.8307391,
        "storage_days": 0,
        "manager_phone": "062-960-8787"
    },
    {
        "id": 153167,
        "sido": "광주",
        "sigungu": "광산구",
        "eupmyeondong": "송정동",
        "address": "광주광역시 광산구 송정동 1147",
        "purpose": "교통단속",
        "latitude": 35.14267627,
        "longitude": 126.8017352,
        "storage_days": 0,
        "manager_phone": "062-960-8787"
    },
    {
        "id": 153168,
        "sido": "광주",
        "sigungu": "광산구",
        "eupmyeondong": "송정동",
        "address": "광주광역시 광산구 송정동 250-19",
        "purpose": "교통단속",
        "latitude": 35.13468242,
        "longitude": 126.801546,
        "storage_days": 0,
        "manager_phone": "062-960-8787"
    },
    {
        "id": 153169,
        "sido": "광주",
        "sigungu": "광산구",
        "eupmyeondong": "송정동",
        "address": "광주광역시 광산구 송정동 793-31",
        "purpose": "교통단속",
        "latitude": 35.14018257,
        "longitude": 126.7955013,
        "storage_days": 0,
        "manager_phone": "062-960-8787"
    },
    {
        "id": 153170,
        "sido": "광주",
        "sigungu": "광산구",
        "eupmyeondong": "우산동",
        "address": "광주광역시 광산구 우산동 1094",
        "purpose": "교통단속",
        "latitude": 35.16100207,
        "longitude": 126.8080595,
        "storage_days": 0,
        "manager_phone": "062-960-8787"
    },
    {
        "id": 153171,
        "sido": "광주",
        "sigungu": "광산구",
        "eupmyeondong": "우산동",
        "address": "광주광역시 광산구 우산동 1612-",
        "purpose": "교통단속",
        "latitude": 35.16075681,
        "longitude": 126.8102344,
        "storage_days": 0,
        "manager_phone": "062-960-8787"
    },
    {
        "id": 153172,
        "sido": "광주",
        "sigungu": "광산구",
        "eupmyeondong": "수완동",
        "address": "광주광역시 광산구 수완동 1781",
        "purpose": "교통단속",
        "latitude": 35.19969029,
        "longitude": 126.8315615,
        "storage_days": 0,
        "manager_phone": "062-960-8787"
    },
    {
        "id": 153173,
        "sido": "광주",
        "sigungu": "광산구",
        "eupmyeondong": "수완동",
        "address": "광주광역시 광산구 수완동 1828",
        "purpose": "교통단속",
        "latitude": 35.19008741,
        "longitude": 126.8263005,
        "storage_days": 0,
        "manager_phone": "062-960-8787"
    },
    {
        "id": 153174,
        "sido": "광주",
        "sigungu": "광산구",
        "eupmyeondong": "쌍암동",
        "address": "광주광역시 광산구 쌍암동 691",
        "purpose": "교통단속",
        "latitude": 35.22193631,
        "longitude": 126.8473737,
        "storage_days": 0,
        "manager_phone": "062-960-8787"
    },
    {
        "id": 153175,
        "sido": "광주",
        "sigungu": "광산구",
        "eupmyeondong": "쌍암동",
        "address": "광주광역시 광산구 쌍암동 697",
        "purpose": "교통단속",
        "latitude": 35.21302785,
        "longitude": 126.8518243,
        "storage_days": 0,
        "manager_phone": "062-960-8787"
    },
    {
        "id": 153176,
        "sido": "광주",
        "sigungu": "광산구",
        "eupmyeondong": "쌍암동",
        "address": "광주광역시 광산구 쌍암동 694-61",
        "purpose": "교통단속",
        "latitude": 35.21461571,
        "longitude": 126.8499533,
        "storage_days": 0,
        "manager_phone": "062-960-8787"
    },
    {
        "id": 153177,
        "sido": "광주",
        "sigungu": "광산구",
        "eupmyeondong": "하남동",
        "address": "광주광역시 광산구 하남동 506-11",
        "purpose": "교통단속",
        "latitude": 35.18617096,
        "longitude": 126.8018298,
        "storage_days": 0,
        "manager_phone": "062-960-8787"
    },
    {
        "id": 153178,
        "sido": "광주",
        "sigungu": "광산구",
        "eupmyeondong": "남산동",
        "address": "광주광역시 광산구 남산동 696-8",
        "purpose": "교통단속",
        "latitude": 35.17943835,
        "longitude": 126.7231218,
        "storage_days": 0,
        "manager_phone": "062-960-8787"
    },
    {
        "id": 153179,
        "sido": "광주",
        "sigungu": "광산구",
        "eupmyeondong": "임곡동",
        "address": "광주광역시 광산구 임곡동 451-2",
        "purpose": "교통단속",
        "latitude": 35.2195353,
        "longitude": 126.7447044,
        "storage_days": 0,
        "manager_phone": "062-960-8787"
    },
    {
        "id": 153180,
        "sido": "광주",
        "sigungu": "광산구",
        "eupmyeondong": "신가동",
        "address": "광주광역시 광산구 신가동 826-5",
        "purpose": "교통단속",
        "latitude": 35.18706913,
        "longitude": 126.8359941,
        "storage_days": 0,
        "manager_phone": "062-960-8787"
    },
    {
        "id": 153181,
        "sido": "광주",
        "sigungu": "광산구",
        "eupmyeondong": "쌍암동",
        "address": "광주광역시 광산구 쌍암동 658-6",
        "purpose": "교통단속",
        "latitude": 35.2186391,
        "longitude": 126.8437811,
        "storage_days": 0,
        "manager_phone": "062-960-8787"
    },
    {
        "id": 153182,
        "sido": "광주",
        "sigungu": "광산구",
        "eupmyeondong": "비아중앙로",
        "address": "광주광역시 광산구 비아중앙로 18-1",
        "purpose": "생활방범",
        "latitude": 35.22063719,
        "longitude": 126.8249273,
        "storage_days": 30,
        "manager_phone": "062-613-6444"
    },
    {
        "id": 153183,
        "sido": "광주",
        "sigungu": "광산구",
        "eupmyeondong": "비아로",
        "address": "광주광역시 광산구 비아로 136",
        "purpose": "생활방범",
        "latitude": 35.2222647,
        "longitude": 126.8190649,
        "storage_days": 30,
        "manager_phone": "062-613-6444"
    },
    {
        "id": 153184,
        "sido": "광주",
        "sigungu": "광산구",
        "eupmyeondong": "산월동",
        "address": "광주광역시 광산구 산월동 880-1",
        "purpose": "생활방범",
        "latitude": 35.20736641,
        "longitude": 126.8514148,
        "storage_days": 30,
        "manager_phone": "062-613-6444"
    },
    {
        "id": 153185,
        "sido": "광주",
        "sigungu": "광산구",
        "eupmyeondong": "산월동",
        "address": "광주광역시 광산구 산월동 882-8",
        "purpose": "생활방범",
        "latitude": 35.21330249,
        "longitude": 126.8468276,
        "storage_days": 30,
        "manager_phone": "062-613-6444"
    },
    {
        "id": 153186,
        "sido": "광주",
        "sigungu": "광산구",
        "eupmyeondong": "산월로",
        "address": "광주광역시 광산구 산월로 101",
        "purpose": "생활방범",
        "latitude": 35.20951366,
        "longitude": 126.8481133,
        "storage_days": 30,
        "manager_phone": "062-613-6444"
    },
    {
        "id": 153187,
        "sido": "광주",
        "sigungu": "광산구",
        "eupmyeondong": "목련로2번길",
        "address": "광주광역시 광산구 목련로2번길 19",
        "purpose": "생활방범",
        "latitude": 35.17225412,
        "longitude": 126.7983841,
        "storage_days": 30,
        "manager_phone": "062-613-6444"
    },
    {
        "id": 153188,
        "sido": "광주",
        "sigungu": "광산구",
        "eupmyeondong": "목련로22번길",
        "address": "광주광역시 광산구 목련로22번길 11",
        "purpose": "생활방범",
        "latitude": 35.1722061,
        "longitude": 126.801013,
        "storage_days": 30,
        "manager_phone": "062-613-6444"
    },
    {
        "id": 153189,
        "sido": "광주",
        "sigungu": "광산구",
        "eupmyeondong": "목련로22번길",
        "address": "광주광역시 광산구 목련로22번길 31",
        "purpose": "생활방범",
        "latitude": 35.17115694,
        "longitude": 126.8008616,
        "storage_days": 30,
        "manager_phone": "062-613-6444"
    },
    {
        "id": 153190,
        "sido": "광주",
        "sigungu": "광산구",
        "eupmyeondong": "산정동",
        "address": "광주광역시 광산구 산정동 882-21",
        "purpose": "생활방범",
        "latitude": 35.16410263,
        "longitude": 126.7996988,
        "storage_days": 30,
        "manager_phone": "062-613-6444"
    },
    {
        "id": 153191,
        "sido": "광주",
        "sigungu": "광산구",
        "eupmyeondong": "산정공원로",
        "address": "광주광역시 광산구 산정공원로 71",
        "purpose": "생활방범",
        "latitude": 35.17390907,
        "longitude": 126.8062091,
        "storage_days": 30,
        "manager_phone": "062-613-6444"
    },
    {
        "id": 153192,
        "sido": "광주",
        "sigungu": "광산구",
        "eupmyeondong": "산정로17번길",
        "address": "광주광역시 광산구 산정로17번길 10",
        "purpose": "생활방범",
        "latitude": 35.16831492,
        "longitude": 126.803041,
        "storage_days": 30,
        "manager_phone": "062-613-6444"
    },
    {
        "id": 153193,
        "sido": "광주",
        "sigungu": "광산구",
        "eupmyeondong": "산정로",
        "address": "광주광역시 광산구 산정로 34",
        "purpose": "생활방범",
        "latitude": 35.16965975,
        "longitude": 126.8040425,
        "storage_days": 30,
        "manager_phone": "062-613-6444"
    },
    {
        "id": 153194,
        "sido": "광주",
        "sigungu": "광산구",
        "eupmyeondong": "삼거동",
        "address": "광주광역시 광산구 삼거동 438-4",
        "purpose": "생활방범",
        "latitude": 35.16339176,
        "longitude": 126.6744851,
        "storage_days": 30,
        "manager_phone": "062-613-6444"
    },
    {
        "id": 153195,
        "sido": "광주",
        "sigungu": "광산구",
        "eupmyeondong": "고봉로",
        "address": "광주광역시 광산구 고봉로 905",
        "purpose": "생활방범",
        "latitude": 35.22544744,
        "longitude": 126.7355227,
        "storage_days": 30,
        "manager_phone": "062-613-6444"
    },
    {
        "id": 153196,
        "sido": "광주",
        "sigungu": "광산구",
        "eupmyeondong": "삼도로",
        "address": "광주광역시 광산구 삼도로 342",
        "purpose": "생활방범",
        "latitude": 35.16284318,
        "longitude": 126.7001476,
        "storage_days": 30,
        "manager_phone": "062-613-6444"
    },
    {
        "id": 153197,
        "sido": "광주",
        "sigungu": "광산구",
        "eupmyeondong": "도산로9번길",
        "address": "광주광역시 광산구 도산로9번길 58",
        "purpose": "생활방범",
        "latitude": 35.12715988,
        "longitude": 126.7893977,
        "storage_days": 30,
        "manager_phone": "062-613-6444"
    },
    {
        "id": 153198,
        "sido": "광주",
        "sigungu": "광산구",
        "eupmyeondong": "남동길48번길",
        "address": "광주광역시 광산구 남동길48번길 25",
        "purpose": "생활방범",
        "latitude": 35.13077394,
        "longitude": 126.7902569,
        "storage_days": 30,
        "manager_phone": "062-613-6444"
    },
    {
        "id": 153199,
        "sido": "광주",
        "sigungu": "광산구",
        "eupmyeondong": "도산로",
        "address": "광주광역시 광산구 도산로 9",
        "purpose": "생활방범",
        "latitude": 35.12916542,
        "longitude": 126.7913299,
        "storage_days": 30,
        "manager_phone": "062-613-6444"
    },
    {
        "id": 153200,
        "sido": "광주",
        "sigungu": "광산구",
        "eupmyeondong": "송도로212번길",
        "address": "광주광역시 광산구 송도로212번길 54",
        "purpose": "생활방범",
        "latitude": 35.13127638,
        "longitude": 126.7983985,
        "storage_days": 30,
        "manager_phone": "062-613-6444"
    },
    {
        "id": 153201,
        "sido": "광주",
        "sigungu": "광산구",
        "eupmyeondong": "송도로",
        "address": "광주광역시 광산구 송도로 168-10",
        "purpose": "생활방범",
        "latitude": 35.12958358,
        "longitude": 126.793815,
        "storage_days": 30,
        "manager_phone": "062-613-6444"
    },
    {
        "id": 153202,
        "sido": "광주",
        "sigungu": "광산구",
        "eupmyeondong": "신도산길",
        "address": "광주광역시 광산구 신도산길 82",
        "purpose": "생활방범",
        "latitude": 35.13312882,
        "longitude": 126.7921281,
        "storage_days": 30,
        "manager_phone": "062-613-6444"
    },
    {
        "id": 153203,
        "sido": "광주",
        "sigungu": "광산구",
        "eupmyeondong": "하남산단8번로",
        "address": "광주광역시 광산구 하남산단8번로 165",
        "purpose": "생활방범",
        "latitude": 35.20906377,
        "longitude": 126.8138697,
        "storage_days": 30,
        "manager_phone": "062-613-6444"
    },
    {
        "id": 153204,
        "sido": "광주",
        "sigungu": "광산구",
        "eupmyeondong": "비아로62번길",
        "address": "광주광역시 광산구 비아로62번길 12",
        "purpose": "생활방범",
        "latitude": 35.21987458,
        "longitude": 126.8194148,
        "storage_days": 30,
        "manager_phone": "062-613-6444"
    },
    {
        "id": 153205,
        "sido": "광주",
        "sigungu": "광산구",
        "eupmyeondong": "비아로45번길",
        "address": "광주광역시 광산구 비아로45번길 8-2",
        "purpose": "생활방범",
        "latitude": 35.22000197,
        "longitude": 126.819919,
        "storage_days": 30,
        "manager_phone": "062-613-6444"
    },
    {
        "id": 153206,
        "sido": "광주",
        "sigungu": "광산구",
        "eupmyeondong": "동림동",
        "address": "광주광역시 광산구 동림동 316-5",
        "purpose": "생활방범",
        "latitude": 35.21268078,
        "longitude": 126.6912507,
        "storage_days": 30,
        "manager_phone": "062-613-6444"
    },
    {
        "id": 153207,
        "sido": "광주",
        "sigungu": "광산구",
        "eupmyeondong": "평동로",
        "address": "광주광역시 광산구 평동로 420",
        "purpose": "생활방범",
        "latitude": 35.12271568,
        "longitude": 126.7221851,
        "storage_days": 30,
        "manager_phone": "062-613-6444"
    },
    {
        "id": 153208,
        "sido": "광주",
        "sigungu": "광산구",
        "eupmyeondong": "박호동",
        "address": "광주광역시 광산구 박호동 산169",
        "purpose": "생활방범",
        "latitude": 35.15860297,
        "longitude": 126.738571,
        "storage_days": 30,
        "manager_phone": "062-613-6444"
    },
    {
        "id": 153209,
        "sido": "광주",
        "sigungu": "광산구",
        "eupmyeondong": "마곡길",
        "address": "광주광역시 광산구 마곡길 39",
        "purpose": "생활방범",
        "latitude": 35.08427902,
        "longitude": 126.7876319,
        "storage_days": 30,
        "manager_phone": "062-613-6444"
    },
    {
        "id": 153210,
        "sido": "광주",
        "sigungu": "광산구",
        "eupmyeondong": "비아로",
        "address": "광주광역시 광산구 비아로 185",
        "purpose": "생활방범",
        "latitude": 35.22309737,
        "longitude": 126.8238953,
        "storage_days": 30,
        "manager_phone": "062-613-6444"
    },
    {
        "id": 153211,
        "sido": "광주",
        "sigungu": "광산구",
        "eupmyeondong": "도천남길",
        "address": "광주광역시 광산구 도천남길 150",
        "purpose": "생활방범",
        "latitude": 35.21133657,
        "longitude": 126.8213143,
        "storage_days": 30,
        "manager_phone": "062-613-6444"
    },
    {
        "id": 153212,
        "sido": "광주",
        "sigungu": "광산구",
        "eupmyeondong": "금봉로",
        "address": "광주광역시 광산구 금봉로 23",
        "purpose": "생활방범",
        "latitude": 35.15170311,
        "longitude": 126.8013486,
        "storage_days": 30,
        "manager_phone": "062-613-6444"
    },
    {
        "id": 153213,
        "sido": "광주",
        "sigungu": "광산구",
        "eupmyeondong": "사암로95번길",
        "address": "광주광역시 광산구 사암로95번길 13",
        "purpose": "생활방범",
        "latitude": 35.15281965,
        "longitude": 126.8062048,
        "storage_days": 30,
        "manager_phone": "062-613-6444"
    },
    {
        "id": 153214,
        "sido": "광주",
        "sigungu": "광산구",
        "eupmyeondong": "선운로2번길",
        "address": "광주광역시 광산구 선운로2번길 35",
        "purpose": "생활방범",
        "latitude": 35.14650288,
        "longitude": 126.7731523,
        "storage_days": 30,
        "manager_phone": "062-613-6444"
    },
    {
        "id": 153215,
        "sido": "광주",
        "sigungu": "광산구",
        "eupmyeondong": "선운로",
        "address": "광주광역시 광산구 선운로 1",
        "purpose": "생활방범",
        "latitude": 35.14838122,
        "longitude": 126.769095,
        "storage_days": 30,
        "manager_phone": "062-613-6444"
    },
    {
        "id": 153216,
        "sido": "광주",
        "sigungu": "광산구",
        "eupmyeondong": "어등대로648번길",
        "address": "광주광역시 광산구 어등대로648번길 146",
        "purpose": "생활방범",
        "latitude": 35.14494029,
        "longitude": 126.781999,
        "storage_days": 30,
        "manager_phone": "062-613-6444"
    },
    {
        "id": 153217,
        "sido": "광주",
        "sigungu": "광산구",
        "eupmyeondong": "소촌동",
        "address": "광주광역시 광산구 소촌동 304-2",
        "purpose": "생활방범",
        "latitude": 35.1476337,
        "longitude": 126.7973487,
        "storage_days": 30,
        "manager_phone": "062-613-6444"
    },
    {
        "id": 153218,
        "sido": "광주",
        "sigungu": "광산구",
        "eupmyeondong": "송정공원로23번길",
        "address": "광주광역시 광산구 송정공원로23번길 1",
        "purpose": "생활방범",
        "latitude": 35.14555019,
        "longitude": 126.7986896,
        "storage_days": 30,
        "manager_phone": "062-613-6444"
    },
    {
        "id": 153219,
        "sido": "광주",
        "sigungu": "광산구",
        "eupmyeondong": "어등대로647번길",
        "address": "광주광역시 광산구 어등대로647번길 30-15",
        "purpose": "생활방범",
        "latitude": 35.14412987,
        "longitude": 126.7937312,
        "storage_days": 30,
        "manager_phone": "062-613-6444"
    },
    {
        "id": 153220,
        "sido": "광주",
        "sigungu": "광산구",
        "eupmyeondong": "어등대로665번길",
        "address": "광주광역시 광산구 어등대로665번길 20",
        "purpose": "생활방범",
        "latitude": 35.14618397,
        "longitude": 126.7916202,
        "storage_days": 30,
        "manager_phone": "062-613-6444"
    },
    {
        "id": 153221,
        "sido": "광주",
        "sigungu": "광산구",
        "eupmyeondong": "금봉로",
        "address": "광주광역시 광산구 금봉로 37",
        "purpose": "생활방범",
        "latitude": 35.15175195,
        "longitude": 126.8026087,
        "storage_days": 30,
        "manager_phone": "062-613-6444"
    },
    {
        "id": 153222,
        "sido": "광주",
        "sigungu": "광산구",
        "eupmyeondong": "송정공원로",
        "address": "광주광역시 광산구 송정공원로 74",
        "purpose": "생활방범",
        "latitude": 35.1498217,
        "longitude": 126.7988888,
        "storage_days": 30,
        "manager_phone": "062-613-6444"
    },
    {
        "id": 153223,
        "sido": "광주",
        "sigungu": "광산구",
        "eupmyeondong": "박호등임로",
        "address": "광주광역시 광산구 박호등임로 43-1",
        "purpose": "생활방범",
        "latitude": 35.15867189,
        "longitude": 126.7361425,
        "storage_days": 30,
        "manager_phone": "062-613-6444"
    },
    {
        "id": 153224,
        "sido": "광주",
        "sigungu": "광산구",
        "eupmyeondong": "송산동",
        "address": "광주광역시 광산구 송산동 256-20",
        "purpose": "생활방범",
        "latitude": 35.15865736,
        "longitude": 126.7317834,
        "storage_days": 30,
        "manager_phone": "062-613-6444"
    },
    {
        "id": 153225,
        "sido": "광주",
        "sigungu": "광산구",
        "eupmyeondong": "송정동",
        "address": "광주광역시 광산구 송정동 896-3",
        "purpose": "생활방범",
        "latitude": 35.13449657,
        "longitude": 126.7971447,
        "storage_days": 30,
        "manager_phone": "062-613-6444"
    },
    {
        "id": 153226,
        "sido": "광주",
        "sigungu": "광산구",
        "eupmyeondong": "송정동",
        "address": "광주광역시 광산구 송정동 1145-8",
        "purpose": "생활방범",
        "latitude": 35.13506572,
        "longitude": 126.7859971,
        "storage_days": 30,
        "manager_phone": "062-613-6444"
    },
    {
        "id": 153227,
        "sido": "광주",
        "sigungu": "광산구",
        "eupmyeondong": "송정로65번길",
        "address": "광주광역시 광산구 송정로65번길 28",
        "purpose": "생활방범",
        "latitude": 35.13538219,
        "longitude": 126.79868,
        "storage_days": 30,
        "manager_phone": "062-613-6444"
    },
    {
        "id": 153228,
        "sido": "광주",
        "sigungu": "광산구",
        "eupmyeondong": "송도로270번길",
        "address": "광주광역시 광산구 송도로270번길 39",
        "purpose": "생활방범",
        "latitude": 35.13760862,
        "longitude": 126.8013391,
        "storage_days": 30,
        "manager_phone": "062-613-6444"
    },
    {
        "id": 153229,
        "sido": "광주",
        "sigungu": "광산구",
        "eupmyeondong": "용보로27번길",
        "address": "광주광역시 광산구 용보로27번길 28",
        "purpose": "생활방범",
        "latitude": 35.13684521,
        "longitude": 126.8031368,
        "storage_days": 30,
        "manager_phone": "062-613-6444"
    },
    {
        "id": 153230,
        "sido": "광주",
        "sigungu": "광산구",
        "eupmyeondong": "용보로",
        "address": "광주광역시 광산구 용보로 14",
        "purpose": "생활방범",
        "latitude": 35.137081,
        "longitude": 126.8004285,
        "storage_days": 30,
        "manager_phone": "062-613-6444"
    },
    {
        "id": 153231,
        "sido": "광주",
        "sigungu": "광산구",
        "eupmyeondong": "내상로33번안길",
        "address": "광주광역시 광산구 내상로33번안길 22",
        "purpose": "생활방범",
        "latitude": 35.13883622,
        "longitude": 126.7989016,
        "storage_days": 30,
        "manager_phone": "062-613-6444"
    },
    {
        "id": 153232,
        "sido": "광주",
        "sigungu": "광산구",
        "eupmyeondong": "송도로",
        "address": "광주광역시 광산구 송도로 305",
        "purpose": "생활방범",
        "latitude": 35.14020576,
        "longitude": 126.8009844,
        "storage_days": 30,
        "manager_phone": "062-613-6444"
    },
    {
        "id": 153233,
        "sido": "광주",
        "sigungu": "광산구",
        "eupmyeondong": "송정동",
        "address": "광주광역시 광산구 송정동 71-5",
        "purpose": "생활방범",
        "latitude": 35.13972815,
        "longitude": 126.8054392,
        "storage_days": 30,
        "manager_phone": "062-613-6444"
    },
    {
        "id": 153234,
        "sido": "광주",
        "sigungu": "광산구",
        "eupmyeondong": "광산로89번길",
        "address": "광주광역시 광산구 광산로89번길 15",
        "purpose": "생활방범",
        "latitude": 35.1424395,
        "longitude": 126.7998322,
        "storage_days": 30,
        "manager_phone": "062-613-6444"
    },
    {
        "id": 153235,
        "sido": "광주",
        "sigungu": "광산구",
        "eupmyeondong": "송정동",
        "address": "광주광역시 광산구 송정동 763-3",
        "purpose": "생활방범",
        "latitude": 35.14095386,
        "longitude": 126.7974879,
        "storage_days": 30,
        "manager_phone": "062-613-6444"
    },
    {
        "id": 153236,
        "sido": "광주",
        "sigungu": "광산구",
        "eupmyeondong": "내상로",
        "address": "광주광역시 광산구 내상로 39",
        "purpose": "생활방범",
        "latitude": 35.13879843,
        "longitude": 126.7973214,
        "storage_days": 30,
        "manager_phone": "062-613-6444"
    },
    {
        "id": 153237,
        "sido": "광주",
        "sigungu": "광산구",
        "eupmyeondong": "송정로30번길",
        "address": "광주광역시 광산구 송정로30번길 16",
        "purpose": "생활방범",
        "latitude": 35.13567941,
        "longitude": 126.7935065,
        "storage_days": 30,
        "manager_phone": "062-613-6444"
    },
    {
        "id": 153238,
        "sido": "광주",
        "sigungu": "광산구",
        "eupmyeondong": "송정로51번길",
        "address": "광주광역시 광산구 송정로51번길 15",
        "purpose": "생활방범",
        "latitude": 35.13607501,
        "longitude": 126.7965403,
        "storage_days": 30,
        "manager_phone": "062-613-6444"
    },
    {
        "id": 153239,
        "sido": "광주",
        "sigungu": "광산구",
        "eupmyeondong": "임방울대로",
        "address": "광주광역시 광산구 임방울대로 330",
        "purpose": "생활방범",
        "latitude": 35.18935373,
        "longitude": 126.8240651,
        "storage_days": 30,
        "manager_phone": "062-613-6444"
    },
    {
        "id": 153240,
        "sido": "광주",
        "sigungu": "광산구",
        "eupmyeondong": "수완동",
        "address": "광주광역시 광산구 수완동 732",
        "purpose": "생활방범",
        "latitude": 35.20219867,
        "longitude": 126.8250839,
        "storage_days": 30,
        "manager_phone": "062-613-6444"
    },
    {
        "id": 153241,
        "sido": "광주",
        "sigungu": "광산구",
        "eupmyeondong": "수등로258번길",
        "address": "광주광역시 광산구 수등로258번길 2",
        "purpose": "생활방범",
        "latitude": 35.1848866,
        "longitude": 126.8367989,
        "storage_days": 30,
        "manager_phone": "062-613-6444"
    },
    {
        "id": 153242,
        "sido": "광주",
        "sigungu": "광산구",
        "eupmyeondong": "신가동",
        "address": "광주광역시 광산구 신가동 303-3",
        "purpose": "생활방범",
        "latitude": 35.18145635,
        "longitude": 126.8362269,
        "storage_days": 30,
        "manager_phone": "062-613-6444"
    },
    {
        "id": 153243,
        "sido": "광주",
        "sigungu": "광산구",
        "eupmyeondong": "월곡중앙로41번길",
        "address": "광주광역시 광산구 월곡중앙로41번길 12",
        "purpose": "생활방범",
        "latitude": 35.17010056,
        "longitude": 126.8105315,
        "storage_days": 30,
        "manager_phone": "062-613-6444"
    },
    {
        "id": 153244,
        "sido": "광주",
        "sigungu": "광산구",
        "eupmyeondong": "월곡중앙로",
        "address": "광주광역시 광산구 월곡중앙로 35",
        "purpose": "생활방범",
        "latitude": 35.16954916,
        "longitude": 126.8109071,
        "storage_days": 30,
        "manager_phone": "062-613-6444"
    },
    {
        "id": 153245,
        "sido": "광주",
        "sigungu": "광산구",
        "eupmyeondong": "산정공원로",
        "address": "광주광역시 광산구 산정공원로 88",
        "purpose": "생활방범",
        "latitude": 35.17547109,
        "longitude": 126.8066432,
        "storage_days": 30,
        "manager_phone": "062-613-6444"
    },
    {
        "id": 153246,
        "sido": "광주",
        "sigungu": "광산구",
        "eupmyeondong": "산정로54번길",
        "address": "광주광역시 광산구 산정로54번길 23",
        "purpose": "생활방범",
        "latitude": 35.17132388,
        "longitude": 126.805809,
        "storage_days": 30,
        "manager_phone": "062-613-6444"
    },
    {
        "id": 153247,
        "sido": "광주",
        "sigungu": "광산구",
        "eupmyeondong": "장덕동",
        "address": "광주광역시 광산구 장덕동 1007",
        "purpose": "생활방범",
        "latitude": 35.19237958,
        "longitude": 126.7948492,
        "storage_days": 30,
        "manager_phone": "062-613-6444"
    },
    {
        "id": 153248,
        "sido": "광주",
        "sigungu": "광산구",
        "eupmyeondong": "장덕로96번길",
        "address": "광주광역시 광산구 장덕로96번길 15",
        "purpose": "생활방범",
        "latitude": 35.19123284,
        "longitude": 126.8163332,
        "storage_days": 30,
        "manager_phone": "062-613-6444"
    },
    {
        "id": 153249,
        "sido": "광주",
        "sigungu": "광산구",
        "eupmyeondong": "장덕로",
        "address": "광주광역시 광산구 장덕로 55",
        "purpose": "생활방범",
        "latitude": 35.19508618,
        "longitude": 126.8152999,
        "storage_days": 30,
        "manager_phone": "062-613-6444"
    },
    {
        "id": 153250,
        "sido": "광주",
        "sigungu": "광산구",
        "eupmyeondong": "장덕로6번길",
        "address": "광주광역시 광산구 장덕로6번길 59",
        "purpose": "생활방범",
        "latitude": 35.19389625,
        "longitude": 126.8111199,
        "storage_days": 30,
        "manager_phone": "062-613-6444"
    },
    {
        "id": 153251,
        "sido": "광주",
        "sigungu": "광산구",
        "eupmyeondong": "풍영로229번안길",
        "address": "광주광역시 광산구 풍영로229번안길 2-16",
        "purpose": "생활방범",
        "latitude": 35.19338956,
        "longitude": 126.8136564,
        "storage_days": 30,
        "manager_phone": "062-613-6444"
    },
    {
        "id": 153252,
        "sido": "광주",
        "sigungu": "광산구",
        "eupmyeondong": "하남산단4번로",
        "address": "광주광역시 광산구 하남산단4번로 177",
        "purpose": "생활방범",
        "latitude": 35.19119442,
        "longitude": 126.8095524,
        "storage_days": 30,
        "manager_phone": "062-613-6444"
    },
    {
        "id": 153253,
        "sido": "광주",
        "sigungu": "광산구",
        "eupmyeondong": "하남산단4번로",
        "address": "광주광역시 광산구 하남산단4번로 172",
        "purpose": "생활방범",
        "latitude": 35.19069892,
        "longitude": 126.8090153,
        "storage_days": 30,
        "manager_phone": "062-613-6444"
    },
    {
        "id": 153254,
        "sido": "광주",
        "sigungu": "광산구",
        "eupmyeondong": "장록동",
        "address": "광주광역시 광산구 장록동 2-9",
        "purpose": "생활방범",
        "latitude": 35.13580071,
        "longitude": 126.7817625,
        "storage_days": 30,
        "manager_phone": "062-613-6444"
    },
    {
        "id": 153255,
        "sido": "광주",
        "sigungu": "광산구",
        "eupmyeondong": "장록동",
        "address": "광주광역시 광산구 장록동 753-1",
        "purpose": "생활방범",
        "latitude": 35.14050507,
        "longitude": 126.7699599,
        "storage_days": 30,
        "manager_phone": "062-613-6444"
    },
    {
        "id": 153256,
        "sido": "광주",
        "sigungu": "광산구",
        "eupmyeondong": "송촌길",
        "address": "광주광역시 광산구 송촌길 1",
        "purpose": "생활방범",
        "latitude": 35.13870556,
        "longitude": 126.7735807,
        "storage_days": 30,
        "manager_phone": "062-613-6444"
    },
    {
        "id": 153257,
        "sido": "광주",
        "sigungu": "광산구",
        "eupmyeondong": "손재로",
        "address": "광주광역시 광산구 손재로 170",
        "purpose": "생활방범",
        "latitude": 35.18053533,
        "longitude": 126.7953234,
        "storage_days": 30,
        "manager_phone": "062-613-6444"
    },
    {
        "id": 153258,
        "sido": "광주",
        "sigungu": "광산구",
        "eupmyeondong": "하남대로54번안길",
        "address": "광주광역시 광산구 하남대로54번안길 142-6",
        "purpose": "생활방범",
        "latitude": 35.17722028,
        "longitude": 126.800155,
        "storage_days": 30,
        "manager_phone": "062-613-6444"
    },
    {
        "id": 153259,
        "sido": "광주",
        "sigungu": "광산구",
        "eupmyeondong": "용아로401번길",
        "address": "광주광역시 광산구 용아로401번길 5",
        "purpose": "생활방범",
        "latitude": 35.17925005,
        "longitude": 126.803912,
        "storage_days": 30,
        "manager_phone": "062-613-6444"
    },
    {
        "id": 153260,
        "sido": "광주",
        "sigungu": "광산구",
        "eupmyeondong": "동곡로185번길",
        "address": "광주광역시 광산구 동곡로185번길 13",
        "purpose": "생활방범",
        "latitude": 35.09925311,
        "longitude": 126.7747629,
        "storage_days": 30,
        "manager_phone": "062-613-6444"
    },
    {
        "id": 153261,
        "sido": "광주",
        "sigungu": "광산구",
        "eupmyeondong": "흑석동",
        "address": "광주광역시 광산구 흑석동 산59-2",
        "purpose": "생활방범",
        "latitude": 35.18046725,
        "longitude": 126.8081377,
        "storage_days": 30,
        "manager_phone": "062-613-6444"
    },
    {
        "id": 153262,
        "sido": "광주",
        "sigungu": "광산구",
        "eupmyeondong": "송정공원로11번길",
        "address": "광주광역시 광산구 송정공원로11번길 65",
        "purpose": "생활방범",
        "latitude": 35.1447723,
        "longitude": 126.7960409,
        "storage_days": 30,
        "manager_phone": "062-613-6444"
    },
    {
        "id": 153263,
        "sido": "광주",
        "sigungu": "광산구",
        "eupmyeondong": "사암로92번길",
        "address": "광주광역시 광산구 사암로92번길 136-26",
        "purpose": "생활방범",
        "latitude": 35.15002094,
        "longitude": 126.8140921,
        "storage_days": 30,
        "manager_phone": "062-613-6444"
    },
    {
        "id": 153264,
        "sido": "광주",
        "sigungu": "광산구",
        "eupmyeondong": "금봉로",
        "address": "광주광역시 광산구 금봉로 60",
        "purpose": "생활방범",
        "latitude": 35.15152235,
        "longitude": 126.8052087,
        "storage_days": 30,
        "manager_phone": "062-613-6444"
    },
    {
        "id": 153265,
        "sido": "광주",
        "sigungu": "광산구",
        "eupmyeondong": "용동",
        "address": "광주광역시 광산구 용동 682-10",
        "purpose": "생활방범",
        "latitude": 35.13010734,
        "longitude": 126.7509477,
        "storage_days": 30,
        "manager_phone": "062-613-6444"
    },
    {
        "id": 153266,
        "sido": "광주",
        "sigungu": "",
        "eupmyeondong": "",
        "address": "광주광역시?광산구?수완로74번길?27",
        "purpose": "생활방범",
        "latitude": 35.1918563,
        "longitude": 126.8304851,
        "storage_days": 30,
        "manager_phone": "062-613-6444"
    },
    {
        "id": 153267,
        "sido": "광주",
        "sigungu": "",
        "eupmyeondong": "",
        "address": "광주광역시?광산구?고봉로?838",
        "purpose": "생활방범",
        "latitude": 35.22141707,
        "longitude": 126.7393452,
        "storage_days": 30,
        "manager_phone": "062-613-6444"
    },
    {
        "id": 153268,
        "sido": "광주",
        "sigungu": "",
        "eupmyeondong": "",
        "address": "광주광역시?광산구?월곡로55번길?9-14",
        "purpose": "생활방범",
        "latitude": 35.16953873,
        "longitude": 126.8148972,
        "storage_days": 30,
        "manager_phone": "062-613-6444"
    },
    {
        "id": 153269,
        "sido": "광주",
        "sigungu": "",
        "eupmyeondong": "",
        "address": "광주광역시?광산구?극락둑길?349",
        "purpose": "생활방범",
        "latitude": 35.10579172,
        "longitude": 126.8045407,
        "storage_days": 30,
        "manager_phone": "062-613-6444"
    },
    {
        "id": 153270,
        "sido": "광주",
        "sigungu": "광산구",
        "eupmyeondong": "복룡동",
        "address": "광주광역시 광산구 복룡동 582-2",
        "purpose": "생활방범",
        "latitude": 35.12129003,
        "longitude": 126.7818075,
        "storage_days": 30,
        "manager_phone": "062-613-6444"
    },
    {
        "id": 153271,
        "sido": "광주",
        "sigungu": "광산구",
        "eupmyeondong": "용곡동",
        "address": "광주광역시 광산구 용곡동 49-31",
        "purpose": "생활방범",
        "latitude": 35.124394,
        "longitude": 126.7370924,
        "storage_days": 30,
        "manager_phone": "062-613-6444"
    },
    {
        "id": 153272,
        "sido": "광주",
        "sigungu": "광산구",
        "eupmyeondong": "월전동",
        "address": "광주광역시 광산구 월전동 47-2",
        "purpose": "생활방범",
        "latitude": 35.1257701,
        "longitude": 126.7771672,
        "storage_days": 30,
        "manager_phone": "062-613-6444"
    },
    {
        "id": 153273,
        "sido": "광주",
        "sigungu": "광산구",
        "eupmyeondong": "지정동",
        "address": "광주광역시 광산구 지정동 60-1",
        "purpose": "생활방범",
        "latitude": 35.1396445,
        "longitude": 126.7300476,
        "storage_days": 30,
        "manager_phone": "062-613-6444"
    },
    {
        "id": 153274,
        "sido": "광주",
        "sigungu": "광산구",
        "eupmyeondong": "지평동",
        "address": "광주광역시 광산구 지평동 266-1",
        "purpose": "생활방범",
        "latitude": 35.15062089,
        "longitude": 126.729002,
        "storage_days": 30,
        "manager_phone": "062-613-6444"
    },
    {
        "id": 153275,
        "sido": "광주",
        "sigungu": "광산구",
        "eupmyeondong": "송치동",
        "address": "광주광역시 광산구 송치동 31-1",
        "purpose": "생활방범",
        "latitude": 35.17319795,
        "longitude": 126.7399741,
        "storage_days": 30,
        "manager_phone": "062-613-6444"
    },
    {
        "id": 153276,
        "sido": "광주",
        "sigungu": "광산구",
        "eupmyeondong": "산수동",
        "address": "광주광역시 광산구 산수동 22-1",
        "purpose": "생활방범",
        "latitude": 35.19135005,
        "longitude": 126.7503913,
        "storage_days": 30,
        "manager_phone": "062-613-6444"
    },
    {
        "id": 153277,
        "sido": "광주",
        "sigungu": "",
        "eupmyeondong": "",
        "address": "광주광역시?광산구?임곡로?1",
        "purpose": "생활방범",
        "latitude": 35.2187909,
        "longitude": 126.7466031,
        "storage_days": 30,
        "manager_phone": "062-613-6444"
    },
    {
        "id": 153278,
        "sido": "광주",
        "sigungu": "광산구",
        "eupmyeondong": "두정동",
        "address": "광주광역시 광산구 두정동 124-1",
        "purpose": "생활방범",
        "latitude": 35.21885421,
        "longitude": 126.7684513,
        "storage_days": 30,
        "manager_phone": "062-613-6444"
    },
    {
        "id": 153279,
        "sido": "광주",
        "sigungu": "광산구",
        "eupmyeondong": "지평동",
        "address": "광주광역시 광산구 지평동 310-19",
        "purpose": "생활방범",
        "latitude": 35.14559678,
        "longitude": 126.727703,
        "storage_days": 30,
        "manager_phone": "062-613-6444"
    },
    {
        "id": 153280,
        "sido": "광주",
        "sigungu": "광산구",
        "eupmyeondong": "하남동",
        "address": "광주광역시 광산구 하남동 1273",
        "purpose": "교통단속",
        "latitude": 35.18060258,
        "longitude": 126.8022228,
        "storage_days": 0,
        "manager_phone": "062-960-8787"
    },
    {
        "id": 153281,
        "sido": "광주",
        "sigungu": "광산구",
        "eupmyeondong": "하남동",
        "address": "광주광역시 광산구 하남동 1255",
        "purpose": "교통단속",
        "latitude": 35.18190418,
        "longitude": 126.8040777,
        "storage_days": 0,
        "manager_phone": "062-960-8787"
    },
    {
        "id": 153282,
        "sido": "광주",
        "sigungu": "광산구",
        "eupmyeondong": "하남동",
        "address": "광주광역시 광산구 하남동 1250",
        "purpose": "교통단속",
        "latitude": 35.18199936,
        "longitude": 126.8034633,
        "storage_days": 0,
        "manager_phone": "062-960-8787"
    },
    {
        "id": 153283,
        "sido": "광주",
        "sigungu": "광산구",
        "eupmyeondong": "풍영로329번길",
        "address": "광주광역시 광산구 풍영로329번길 50",
        "purpose": "교통단속",
        "latitude": 35.20195491,
        "longitude": 126.8114293,
        "storage_days": 0,
        "manager_phone": "062-960-8787"
    },
    {
        "id": 153284,
        "sido": "광주",
        "sigungu": "광산구",
        "eupmyeondong": "장신로",
        "address": "광주광역시 광산구 장신로 139",
        "purpose": "교통단속",
        "latitude": 35.19104128,
        "longitude": 126.8253352,
        "storage_days": 0,
        "manager_phone": "062-960-8787"
    },
    {
        "id": 153285,
        "sido": "광주",
        "sigungu": "광산구",
        "eupmyeondong": "장신로",
        "address": "광주광역시 광산구 장신로 140",
        "purpose": "교통단속",
        "latitude": 35.19040175,
        "longitude": 126.8253203,
        "storage_days": 0,
        "manager_phone": "062-960-8787"
    },
    {
        "id": 153286,
        "sido": "광주",
        "sigungu": "광산구",
        "eupmyeondong": "임방울대로",
        "address": "광주광역시 광산구 임방울대로 776",
        "purpose": "교통단속",
        "latitude": 35.21731995,
        "longitude": 126.8432737,
        "storage_days": 0,
        "manager_phone": "062-960-8787"
    },
    {
        "id": 153287,
        "sido": "광주",
        "sigungu": "광산구",
        "eupmyeondong": "수등로94번길",
        "address": "광주광역시 광산구 수등로94번길 31",
        "purpose": "교통단속",
        "latitude": 35.18162766,
        "longitude": 126.8194605,
        "storage_days": 0,
        "manager_phone": "062-960-8787"
    },
    {
        "id": 153288,
        "sido": "광주",
        "sigungu": "광산구",
        "eupmyeondong": "우산동",
        "address": "광주광역시 광산구 우산동 1581-3",
        "purpose": "교통단속",
        "latitude": 35.16236328,
        "longitude": 126.8068051,
        "storage_days": 0,
        "manager_phone": "062-960-8787"
    },
    {
        "id": 153289,
        "sido": "광주",
        "sigungu": "광산구",
        "eupmyeondong": "장덕동",
        "address": "광주광역시 광산구 장덕동 1678",
        "purpose": "교통단속",
        "latitude": 35.19021989,
        "longitude": 126.8209636,
        "storage_days": 0,
        "manager_phone": "062-960-8787"
    },
    {
        "id": 153290,
        "sido": "광주",
        "sigungu": "광산구",
        "eupmyeondong": "쌍암동",
        "address": "광주광역시 광산구 쌍암동 691",
        "purpose": "교통단속",
        "latitude": 35.22193631,
        "longitude": 126.8473737,
        "storage_days": 0,
        "manager_phone": "062-960-8787"
    },
    {
        "id": 153291,
        "sido": "광주",
        "sigungu": "광산구",
        "eupmyeondong": "금봉로",
        "address": "광주광역시 광산구 금봉로 107",
        "purpose": "교통단속",
        "latitude": 35.15214386,
        "longitude": 126.8103965,
        "storage_days": 0,
        "manager_phone": "062-960-8787"
    },
    {
        "id": 153292,
        "sido": "광주",
        "sigungu": "광산구",
        "eupmyeondong": "첨단중앙로",
        "address": "광주광역시 광산구 첨단중앙로 136",
        "purpose": "교통단속",
        "latitude": 35.21722937,
        "longitude": 126.8426543,
        "storage_days": 0,
        "manager_phone": "062-960-8787"
    },
    {
        "id": 153293,
        "sido": "광주",
        "sigungu": "광산구",
        "eupmyeondong": "임방울대로",
        "address": "광주광역시 광산구 임방울대로 261",
        "purpose": "교통단속",
        "latitude": 35.185028,
        "longitude": 126.8186595,
        "storage_days": 0,
        "manager_phone": "062-960-8787"
    },
    {
        "id": 153294,
        "sido": "광주",
        "sigungu": "광산구",
        "eupmyeondong": "장신로",
        "address": "광주광역시 광산구 장신로 82",
        "purpose": "교통단속",
        "latitude": 35.19044454,
        "longitude": 126.8187432,
        "storage_days": 0,
        "manager_phone": "062-960-8787"
    },
    {
        "id": 153295,
        "sido": "광주",
        "sigungu": "광산구",
        "eupmyeondong": "임방울대로",
        "address": "광주광역시 광산구 임방울대로 342",
        "purpose": "교통단속",
        "latitude": 35.190384,
        "longitude": 126.8243265,
        "storage_days": 0,
        "manager_phone": "062-960-8787"
    },
    {
        "id": 153296,
        "sido": "광주",
        "sigungu": "광산구",
        "eupmyeondong": "신창로",
        "address": "광주광역시 광산구 신창로 64",
        "purpose": "교통단속",
        "latitude": 35.19094243,
        "longitude": 126.8373993,
        "storage_days": 0,
        "manager_phone": "062-960-8787"
    },
    {
        "id": 153297,
        "sido": "광주",
        "sigungu": "광산구",
        "eupmyeondong": "목련로273번길",
        "address": "광주광역시 광산구 목련로273번길 97",
        "purpose": "교통단속",
        "latitude": 35.17840704,
        "longitude": 126.8244944,
        "storage_days": 0,
        "manager_phone": "062-960-8787"
    },
    {
        "id": 153298,
        "sido": "광주",
        "sigungu": "광산구",
        "eupmyeondong": "월계로",
        "address": "광주광역시 광산구 월계로 117-35",
        "purpose": "교통단속",
        "latitude": 35.21608459,
        "longitude": 126.8374175,
        "storage_days": 0,
        "manager_phone": "062-960-8787"
    },
    {
        "id": 153299,
        "sido": "광주",
        "sigungu": "광산구",
        "eupmyeondong": "임방울대로",
        "address": "광주광역시 광산구 임방울대로 144",
        "purpose": "교통단속",
        "latitude": 35.1739732,
        "longitude": 126.8179118,
        "storage_days": 0,
        "manager_phone": "062-960-8787"
    },
    {
        "id": 153300,
        "sido": "광주",
        "sigungu": "광산구",
        "eupmyeondong": "임방울대로",
        "address": "광주광역시 광산구 임방울대로 356",
        "purpose": "교통단속",
        "latitude": 35.19166403,
        "longitude": 126.8244068,
        "storage_days": 0,
        "manager_phone": "062-960-8787"
    },
    {
        "id": 153301,
        "sido": "광주",
        "sigungu": "광산구",
        "eupmyeondong": "선운중앙로",
        "address": "광주광역시 광산구 선운중앙로 68",
        "purpose": "교통단속",
        "latitude": 35.14768579,
        "longitude": 126.779235,
        "storage_days": 0,
        "manager_phone": "062-960-8787"
    },
    {
        "id": 153302,
        "sido": "광주",
        "sigungu": "광산구",
        "eupmyeondong": "사암로",
        "address": "광주광역시 광산구 사암로 306",
        "purpose": "교통단속",
        "latitude": 35.1717952,
        "longitude": 126.8097249,
        "storage_days": 0,
        "manager_phone": "062-960-8787"
    },
    {
        "id": 153303,
        "sido": "광주",
        "sigungu": "광산구",
        "eupmyeondong": "임방울대로",
        "address": "광주광역시 광산구 임방울대로 331",
        "purpose": "교통단속",
        "latitude": 35.18962123,
        "longitude": 126.8230638,
        "storage_days": 0,
        "manager_phone": "062-960-8787"
    },
    {
        "id": 153304,
        "sido": "광주",
        "sigungu": "광산구",
        "eupmyeondong": "하남대로",
        "address": "광주광역시 광산구 하남대로 285",
        "purpose": "교통단속",
        "latitude": 35.17935016,
        "longitude": 126.8248924,
        "storage_days": 0,
        "manager_phone": "062-960-8787"
    },
    {
        "id": 153305,
        "sido": "광주",
        "sigungu": "광산구",
        "eupmyeondong": "신창로",
        "address": "광주광역시 광산구 신창로 2",
        "purpose": "교통단속",
        "latitude": 35.18539752,
        "longitude": 126.8372932,
        "storage_days": 0,
        "manager_phone": "062-960-8787"
    },
    {
        "id": 153306,
        "sido": "광주",
        "sigungu": "광산구",
        "eupmyeondong": "월계로",
        "address": "광주광역시 광산구 월계로 173",
        "purpose": "교통단속",
        "latitude": 35.21365417,
        "longitude": 126.8443313,
        "storage_days": 0,
        "manager_phone": "062-960-8787"
    },
    {
        "id": 153307,
        "sido": "광주",
        "sigungu": "광산구",
        "eupmyeondong": "첨단중앙로",
        "address": "광주광역시 광산구 첨단중앙로 102",
        "purpose": "교통단속",
        "latitude": 35.21429806,
        "longitude": 126.8433285,
        "storage_days": 0,
        "manager_phone": "062-960-8787"
    },
    {
        "id": 153308,
        "sido": "광주",
        "sigungu": "광산구",
        "eupmyeondong": "사암로216번길",
        "address": "광주광역시 광산구 사암로216번길 38-16",
        "purpose": "교통단속",
        "latitude": 35.16256412,
        "longitude": 126.8102913,
        "storage_days": 0,
        "manager_phone": "062-960-8787"
    },
    {
        "id": 153309,
        "sido": "광주",
        "sigungu": "광산구",
        "eupmyeondong": "용아로",
        "address": "광주광역시 광산구 용아로 387",
        "purpose": "교통단속",
        "latitude": 35.1779144,
        "longitude": 126.8042339,
        "storage_days": 0,
        "manager_phone": "062-960-8787"
    },
    {
        "id": 153310,
        "sido": "광주",
        "sigungu": "광산구",
        "eupmyeondong": "용아로379번길",
        "address": "광주광역시 광산구 용아로379번길 2",
        "purpose": "교통단속",
        "latitude": 35.17725931,
        "longitude": 126.8041268,
        "storage_days": 0,
        "manager_phone": "062-960-8787"
    },
    {
        "id": 153311,
        "sido": "광주",
        "sigungu": "광산구",
        "eupmyeondong": "수완동",
        "address": "광주광역시 광산구 수완동 1094",
        "purpose": "교통단속",
        "latitude": 35.19151772,
        "longitude": 126.8261384,
        "storage_days": 0,
        "manager_phone": "062-960-8787"
    },
    {
        "id": 153312,
        "sido": "광주",
        "sigungu": "광산구",
        "eupmyeondong": "장덕동",
        "address": "광주광역시 광산구 장덕동 1644",
        "purpose": "교통단속",
        "latitude": 35.18989476,
        "longitude": 126.816976,
        "storage_days": 0,
        "manager_phone": "062-960-8787"
    },
    {
        "id": 153313,
        "sido": "광주",
        "sigungu": "광산구",
        "eupmyeondong": "사암로215번길",
        "address": "광주광역시 광산구 사암로215번길 83",
        "purpose": "교통단속",
        "latitude": 35.16384364,
        "longitude": 126.8037523,
        "storage_days": 0,
        "manager_phone": "062-960-8787"
    },
    {
        "id": 153314,
        "sido": "광주",
        "sigungu": "광산구",
        "eupmyeondong": "사암로215번길",
        "address": "광주광역시 광산구 사암로215번길 35",
        "purpose": "교통단속",
        "latitude": 35.16359938,
        "longitude": 126.8063944,
        "storage_days": 0,
        "manager_phone": "062-960-8787"
    },
    {
        "id": 153315,
        "sido": "광주",
        "sigungu": "광산구",
        "eupmyeondong": "용아로",
        "address": "광주광역시 광산구 용아로 400",
        "purpose": "교통단속",
        "latitude": 35.17897496,
        "longitude": 126.8050859,
        "storage_days": 0,
        "manager_phone": "062-960-8787"
    },
    {
        "id": 153316,
        "sido": "광주",
        "sigungu": "광산구",
        "eupmyeondong": "수등로",
        "address": "광주광역시 광산구 수등로 278",
        "purpose": "교통단속",
        "latitude": 35.18494913,
        "longitude": 126.8391361,
        "storage_days": 0,
        "manager_phone": "062-960-8787"
    },
    {
        "id": 153317,
        "sido": "광주",
        "sigungu": "광산구",
        "eupmyeondong": "손재로110번길",
        "address": "광주광역시 광산구 손재로110번길 46",
        "purpose": "교통단속",
        "latitude": 35.175988,
        "longitude": 126.799476,
        "storage_days": 0,
        "manager_phone": "062-960-8787"
    },
    {
        "id": 153318,
        "sido": "광주",
        "sigungu": "광산구",
        "eupmyeondong": "첨단중앙로124번길",
        "address": "광주광역시 광산구 첨단중앙로124번길 6",
        "purpose": "교통단속",
        "latitude": 35.21634795,
        "longitude": 126.8425256,
        "storage_days": 0,
        "manager_phone": "062-960-8787"
    },
    {
        "id": 153319,
        "sido": "광주",
        "sigungu": "광산구",
        "eupmyeondong": "풍영로",
        "address": "광주광역시 광산구 풍영로 83",
        "purpose": "교통단속",
        "latitude": 35.17946593,
        "longitude": 126.8108891,
        "storage_days": 0,
        "manager_phone": "062-960-8787"
    },
    {
        "id": 153320,
        "sido": "광주",
        "sigungu": "광산구",
        "eupmyeondong": "선운중앙로",
        "address": "광주광역시 광산구 선운중앙로 45",
        "purpose": "교통단속",
        "latitude": 35.14972154,
        "longitude": 126.7779195,
        "storage_days": 0,
        "manager_phone": "062-960-8787"
    },
    {
        "id": 153321,
        "sido": "광주",
        "sigungu": "광산구",
        "eupmyeondong": "도산동",
        "address": "광주광역시 광산구 도산동 778-12",
        "purpose": "생활방범",
        "latitude": 35.12981313,
        "longitude": 126.7929828,
        "storage_days": 30,
        "manager_phone": "062-613-6444"
    },
    {
        "id": 153322,
        "sido": "광주",
        "sigungu": "광산구",
        "eupmyeondong": "송정동",
        "address": "광주광역시 광산구 송정동 신도산길 27-12",
        "purpose": "생활방범",
        "latitude": 35.132309,
        "longitude": 126.7891883,
        "storage_days": 30,
        "manager_phone": "062-613-6444"
    },
    {
        "id": 153323,
        "sido": "광주",
        "sigungu": "광산구",
        "eupmyeondong": "목련로397번안길",
        "address": "광주광역시 광산구 목련로397번안길 16",
        "purpose": "생활방범",
        "latitude": 35.18339279,
        "longitude": 126.8319932,
        "storage_days": 30,
        "manager_phone": "062-613-6444"
    },
    {
        "id": 153324,
        "sido": "광주",
        "sigungu": "광산구",
        "eupmyeondong": "신룡동",
        "address": "광주광역시 광산구 신룡동 486-4",
        "purpose": "생활방범",
        "latitude": 35.20945721,
        "longitude": 126.7612149,
        "storage_days": 30,
        "manager_phone": "062-613-6444"
    },
    {
        "id": 153325,
        "sido": "광주",
        "sigungu": "광산구",
        "eupmyeondong": "구촌반촌길",
        "address": "광주광역시 광산구 구촌반촌길 242",
        "purpose": "생활방범",
        "latitude": 35.19105956,
        "longitude": 126.8500733,
        "storage_days": 30,
        "manager_phone": "062-613-6444"
    },
    {
        "id": 153326,
        "sido": "광주",
        "sigungu": "광산구",
        "eupmyeondong": "신창로36번길",
        "address": "광주광역시 광산구 신창로36번길 28",
        "purpose": "생활방범",
        "latitude": 35.18852141,
        "longitude": 126.8385516,
        "storage_days": 30,
        "manager_phone": "062-613-6444"
    },
    {
        "id": 153327,
        "sido": "광주",
        "sigungu": "광산구",
        "eupmyeondong": "신창로161번길",
        "address": "광주광역시 광산구 신창로161번길 34",
        "purpose": "생활방범",
        "latitude": 35.19961756,
        "longitude": 126.838111,
        "storage_days": 30,
        "manager_phone": "062-613-6444"
    },
    {
        "id": 153328,
        "sido": "광주",
        "sigungu": "광산구",
        "eupmyeondong": "신창로138번길",
        "address": "광주광역시 광산구 신창로138번길 32-3",
        "purpose": "생활방범",
        "latitude": 35.19603672,
        "longitude": 126.8404634,
        "storage_days": 30,
        "manager_phone": "062-613-6444"
    },
    {
        "id": 153329,
        "sido": "광주",
        "sigungu": "광산구",
        "eupmyeondong": "신창로162번길",
        "address": "광주광역시 광산구 신창로162번길 69",
        "purpose": "생활방범",
        "latitude": 35.19765816,
        "longitude": 126.8440552,
        "storage_days": 30,
        "manager_phone": "062-613-6444"
    },
    {
        "id": 153330,
        "sido": "광주",
        "sigungu": "광산구",
        "eupmyeondong": "신창로162번길",
        "address": "광주광역시 광산구 신창로162번길 39-3",
        "purpose": "생활방범",
        "latitude": 35.19767811,
        "longitude": 126.8426871,
        "storage_days": 30,
        "manager_phone": "062-613-6444"
    },
    {
        "id": 153331,
        "sido": "광주",
        "sigungu": "광산구",
        "eupmyeondong": "신창로48번길",
        "address": "광주광역시 광산구 신창로48번길 53-13",
        "purpose": "생활방범",
        "latitude": 35.19026592,
        "longitude": 126.8399336,
        "storage_days": 30,
        "manager_phone": "062-613-6444"
    },
    {
        "id": 153332,
        "sido": "광주",
        "sigungu": "광산구",
        "eupmyeondong": "신창로48번길",
        "address": "광주광역시 광산구 신창로48번길 36",
        "purpose": "생활방범",
        "latitude": 35.18951361,
        "longitude": 126.8390222,
        "storage_days": 30,
        "manager_phone": "062-613-6444"
    },
    {
        "id": 153333,
        "sido": "광주",
        "sigungu": "광산구?신창로72번길?10-29",
        "eupmyeondong": "",
        "address": "광주광역시 광산구?신창로72번길?10-29",
        "purpose": "생활방범",
        "latitude": 35.19140156,
        "longitude": 126.8387311,
        "storage_days": 30,
        "manager_phone": "062-613-6444"
    },
    {
        "id": 153334,
        "sido": "광주",
        "sigungu": "광산구",
        "eupmyeondong": "장신로",
        "address": "광주광역시 광산구 장신로 261",
        "purpose": "생활방범",
        "latitude": 35.19095334,
        "longitude": 126.8387445,
        "storage_days": 30,
        "manager_phone": "062-613-6444"
    },
    {
        "id": 153335,
        "sido": "광주",
        "sigungu": "광산구",
        "eupmyeondong": "신창동",
        "address": "광주광역시 광산구 신창동 634-4",
        "purpose": "생활방범",
        "latitude": 35.19373513,
        "longitude": 126.8472536,
        "storage_days": 30,
        "manager_phone": "062-613-6444"
    },
    {
        "id": 153336,
        "sido": "광주",
        "sigungu": "광산구",
        "eupmyeondong": "북문대로419번길",
        "address": "광주광역시 광산구 북문대로419번길 51",
        "purpose": "생활방범",
        "latitude": 35.19249805,
        "longitude": 126.8465669,
        "storage_days": 30,
        "manager_phone": "062-613-6444"
    },
    {
        "id": 153337,
        "sido": "광주",
        "sigungu": "광산구",
        "eupmyeondong": "왕버들로322번길",
        "address": "광주광역시 광산구 왕버들로322번길 26",
        "purpose": "생활방범",
        "latitude": 35.19356381,
        "longitude": 126.8431138,
        "storage_days": 30,
        "manager_phone": "062-613-6444"
    },
    {
        "id": 153338,
        "sido": "광주",
        "sigungu": "광산구",
        "eupmyeondong": "신촌동",
        "address": "광주광역시 광산구 신촌동 1075-14",
        "purpose": "생활방범",
        "latitude": 35.14554772,
        "longitude": 126.8005243,
        "storage_days": 30,
        "manager_phone": "062-613-6444"
    },
    {
        "id": 153339,
        "sido": "광주",
        "sigungu": "광산구",
        "eupmyeondong": "신촌동",
        "address": "광주광역시 광산구 신촌동 695-43",
        "purpose": "생활방범",
        "latitude": 35.14155078,
        "longitude": 126.8097461,
        "storage_days": 30,
        "manager_phone": "062-613-6444"
    },
    {
        "id": 153340,
        "sido": "광주",
        "sigungu": "광산구",
        "eupmyeondong": "사암로27번길",
        "address": "광주광역시 광산구 사암로27번길 25",
        "purpose": "생활방범",
        "latitude": 35.14584649,
        "longitude": 126.8065617,
        "storage_days": 30,
        "manager_phone": "062-613-6444"
    },
    {
        "id": 153341,
        "sido": "광주",
        "sigungu": "광산구",
        "eupmyeondong": "첨단중앙로152번길",
        "address": "광주광역시 광산구 첨단중앙로152번길 6-8",
        "purpose": "생활방범",
        "latitude": 35.21826735,
        "longitude": 126.8425693,
        "storage_days": 30,
        "manager_phone": "062-613-6444"
    },
    {
        "id": 153342,
        "sido": "광주",
        "sigungu": "광산구",
        "eupmyeondong": "첨단중앙로152번길",
        "address": "광주광역시 광산구 첨단중앙로152번길 16",
        "purpose": "생활방범",
        "latitude": 35.21882086,
        "longitude": 126.8431175,
        "storage_days": 30,
        "manager_phone": "062-613-6444"
    },
    {
        "id": 153343,
        "sido": "광주",
        "sigungu": "광산구",
        "eupmyeondong": "첨단중앙로152번길",
        "address": "광주광역시 광산구 첨단중앙로152번길 31-7",
        "purpose": "생활방범",
        "latitude": 35.21962788,
        "longitude": 126.8437142,
        "storage_days": 30,
        "manager_phone": "062-613-6444"
    },
    {
        "id": 153344,
        "sido": "광주",
        "sigungu": "광산구",
        "eupmyeondong": "첨단중앙로152번길",
        "address": "광주광역시 광산구 첨단중앙로152번길 31-16",
        "purpose": "생활방범",
        "latitude": 35.22041856,
        "longitude": 126.8443509,
        "storage_days": 30,
        "manager_phone": "062-613-6444"
    },
    {
        "id": 153345,
        "sido": "광주",
        "sigungu": "광산구",
        "eupmyeondong": "첨단중앙로182번길",
        "address": "광주광역시 광산구 첨단중앙로182번길 46",
        "purpose": "생활방범",
        "latitude": 35.22165518,
        "longitude": 126.8462315,
        "storage_days": 30,
        "manager_phone": "062-613-6444"
    },
    {
        "id": 153346,
        "sido": "광주",
        "sigungu": "광산구",
        "eupmyeondong": "첨단강변로99번길",
        "address": "광주광역시 광산구 첨단강변로99번길 22",
        "purpose": "생활방범",
        "latitude": 35.21677488,
        "longitude": 126.8519173,
        "storage_days": 30,
        "manager_phone": "062-613-6444"
    },
    {
        "id": 153347,
        "sido": "광주",
        "sigungu": "광산구",
        "eupmyeondong": "안청동",
        "address": "광주광역시 광산구 안청동 275-29",
        "purpose": "생활방범",
        "latitude": 35.21687346,
        "longitude": 126.8047322,
        "storage_days": 30,
        "manager_phone": "062-613-6444"
    },
    {
        "id": 153348,
        "sido": "광주",
        "sigungu": "광산구",
        "eupmyeondong": "하남산단9번로",
        "address": "광주광역시 광산구 하남산단9번로 153",
        "purpose": "생활방범",
        "latitude": 35.21437588,
        "longitude": 126.8120056,
        "storage_days": 30,
        "manager_phone": "062-613-6444"
    },
    {
        "id": 153349,
        "sido": "광주",
        "sigungu": "광산구",
        "eupmyeondong": "하남산단6번로",
        "address": "광주광역시 광산구 하남산단6번로 5",
        "purpose": "생활방범",
        "latitude": 35.20318615,
        "longitude": 126.796018,
        "storage_days": 30,
        "manager_phone": "062-613-6444"
    },
    {
        "id": 153350,
        "sido": "광주",
        "sigungu": "광산구",
        "eupmyeondong": "장덕동",
        "address": "광주광역시 광산구 장덕동 505-51",
        "purpose": "생활방범",
        "latitude": 35.20215884,
        "longitude": 126.8104158,
        "storage_days": 30,
        "manager_phone": "062-613-6444"
    },
    {
        "id": 153351,
        "sido": "광주",
        "sigungu": "광산구",
        "eupmyeondong": "평동로",
        "address": "광주광역시 광산구 평동로 819",
        "purpose": "생활방범",
        "latitude": 35.12463548,
        "longitude": 126.7637959,
        "storage_days": 30,
        "manager_phone": "062-613-6444"
    },
    {
        "id": 153352,
        "sido": "광주",
        "sigungu": "광산구",
        "eupmyeondong": "평동로803번길",
        "address": "광주광역시 광산구 평동로803번길 26",
        "purpose": "생활방범",
        "latitude": 35.12660008,
        "longitude": 126.7622714,
        "storage_days": 30,
        "manager_phone": "062-613-6444"
    },
    {
        "id": 153353,
        "sido": "광주",
        "sigungu": "광산구",
        "eupmyeondong": "평동산단2번로",
        "address": "광주광역시 광산구 평동산단2번로 58",
        "purpose": "생활방범",
        "latitude": 35.13251113,
        "longitude": 126.7559731,
        "storage_days": 30,
        "manager_phone": "062-613-6444"
    },