[
    {
        "id": 250802,
        "sido": "세종",
        "sigungu": "집현동",
        "eupmyeondong": "785-346",
        "address": "세종특별자치시 집현동 785-346",
        "purpose": "생활방범",
        "latitude": 36.483596,
        "longitude": 127.317288,
        "storage_days": 30,
        "manager_phone": "044-300-2821"
    },
    {
        "id": 250803,
        "sido": "세종",
        "sigungu": "보람동664-74",
        "eupmyeondong": "",
        "address": "세종특별자치시 보람동664-74",
        "purpose": "생활방범",
        "latitude": 36.474942,
        "longitude": 127.282548,
        "storage_days": 30,
        "manager_phone": "044-300-2822"
    },
    {
        "id": 250804,
        "sido": "세종",
        "sigungu": "보람동664-37",
        "eupmyeondong": "",
        "address": "세종특별자치시 보람동664-37",
        "purpose": "생활방범",
        "latitude": 36.477896,
        "longitude": 127.28135,
        "storage_days": 30,
        "manager_phone": "044-300-2823"
    },
    {
        "id": 250805,
        "sido": "세종",
        "sigungu": "시청대로",
        "eupmyeondong": "115",
        "address": "세종특별자치시 시청대로 115 (보람동)",
        "purpose": "생활방범",
        "latitude": 36.479247,
        "longitude": 127.284454,
        "storage_days": 30,
        "manager_phone": "044-300-2824"
    },
    {
        "id": 250806,
        "sido": "세종",
        "sigungu": "시청대로",
        "eupmyeondong": "137",
        "address": "세종특별자치시 시청대로 137 (보람동)",
        "purpose": "생활방범",
        "latitude": 36.480054,
        "longitude": 127.286204,
        "storage_days": 30,
        "manager_phone": "044-300-2825"
    },
    {
        "id": 250807,
        "sido": "세종",
        "sigungu": "보람동623-4",
        "eupmyeondong": "",
        "address": "세종특별자치시 보람동623-4",
        "purpose": "생활방범",
        "latitude": 36.482634,
        "longitude": 127.29173,
        "storage_days": 30,
        "manager_phone": "044-300-2826"
    },
    {
        "id": 250808,
        "sido": "세종",
        "sigungu": "보람동615-1",
        "eupmyeondong": "",
        "address": "세종특별자치시 보람동615-1",
        "purpose": "생활방범",
        "latitude": 36.484165,
        "longitude": 127.293067,
        "storage_days": 30,
        "manager_phone": "044-300-2827"
    },
    {
        "id": 250809,
        "sido": "세종",
        "sigungu": "보람동625-1",
        "eupmyeondong": "",
        "address": "세종특별자치시 보람동625-1",
        "purpose": "생활방범",
        "latitude": 36.481405,
        "longitude": 127.289277,
        "storage_days": 30,
        "manager_phone": "044-300-2828"
    },
    {
        "id": 250810,
        "sido": "세종",
        "sigungu": "보람동49-1",
        "eupmyeondong": "",
        "address": "세종특별자치시 보람동49-1",
        "purpose": "생활방범",
        "latitude": 36.479026,
        "longitude": 127.299443,
        "storage_days": 30,
        "manager_phone": "044-300-2829"
    },
    {
        "id": 250811,
        "sido": "세종",
        "sigungu": "보람동641-9",
        "eupmyeondong": "",
        "address": "세종특별자치시 보람동641-9",
        "purpose": "생활방범",
        "latitude": 36.475355,
        "longitude": 127.292441,
        "storage_days": 30,
        "manager_phone": "044-300-2830"
    },
    {
        "id": 250812,
        "sido": "세종",
        "sigungu": "보람동664-115",
        "eupmyeondong": "",
        "address": "세종특별자치시 보람동664-115",
        "purpose": "생활방범",
        "latitude": 36.476744,
        "longitude": 127.283893,
        "storage_days": 30,
        "manager_phone": "044-300-2831"
    },
    {
        "id": 250813,
        "sido": "세종",
        "sigungu": "보람동664-122",
        "eupmyeondong": "",
        "address": "세종특별자치시 보람동664-122",
        "purpose": "생활방범",
        "latitude": 36.476432,
        "longitude": 127.283982,
        "storage_days": 30,
        "manager_phone": "044-300-2832"
    },
    {
        "id": 250814,
        "sido": "세종",
        "sigungu": "보람동664-27",
        "eupmyeondong": "",
        "address": "세종특별자치시 보람동664-27",
        "purpose": "생활방범",
        "latitude": 36.477308,
        "longitude": 127.285276,
        "storage_days": 30,
        "manager_phone": "044-300-2833"
    },
    {
        "id": 250815,
        "sido": "세종",
        "sigungu": "보람동700-90",
        "eupmyeondong": "",
        "address": "세종특별자치시 보람동700-90",
        "purpose": "생활방범",
        "latitude": 36.475446,
        "longitude": 127.286525,
        "storage_days": 30,
        "manager_phone": "044-300-2834"
    },
    {
        "id": 250816,
        "sido": "세종",
        "sigungu": "보람동632-1",
        "eupmyeondong": "",
        "address": "세종특별자치시 보람동632-1",
        "purpose": "생활방범",
        "latitude": 36.480308,
        "longitude": 127.293177,
        "storage_days": 30,
        "manager_phone": "044-300-2835"
    },
    {
        "id": 250817,
        "sido": "세종",
        "sigungu": "보람동633-2",
        "eupmyeondong": "",
        "address": "세종특별자치시 보람동633-2",
        "purpose": "생활방범",
        "latitude": 36.480113,
        "longitude": 127.293883,
        "storage_days": 30,
        "manager_phone": "044-300-2836"
    },
    {
        "id": 250818,
        "sido": "세종",
        "sigungu": "보람동630-8",
        "eupmyeondong": "",
        "address": "세종특별자치시 보람동630-8",
        "purpose": "생활방범",
        "latitude": 36.47769,
        "longitude": 127.291674,
        "storage_days": 30,
        "manager_phone": "044-300-2837"
    },
    {
        "id": 250819,
        "sido": "세종",
        "sigungu": "시청대로",
        "eupmyeondong": "106",
        "address": "세종특별자치시 시청대로 106 (보람동)",
        "purpose": "생활방범",
        "latitude": 36.478497,
        "longitude": 127.284227,
        "storage_days": 30,
        "manager_phone": "044-300-2838"
    },
    {
        "id": 250820,
        "sido": "세종",
        "sigungu": "보람동664-3",
        "eupmyeondong": "",
        "address": "세종특별자치시 보람동664-3",
        "purpose": "생활방범",
        "latitude": 36.479685,
        "longitude": 127.284269,
        "storage_days": 30,
        "manager_phone": "044-300-2839"
    },
    {
        "id": 250821,
        "sido": "세종",
        "sigungu": "보람동623-5",
        "eupmyeondong": "",
        "address": "세종특별자치시 보람동623-5",
        "purpose": "생활방범",
        "latitude": 36.488743,
        "longitude": 127.292492,
        "storage_days": 30,
        "manager_phone": "044-300-2840"
    },
    {
        "id": 250822,
        "sido": "세종",
        "sigungu": "보람동656",
        "eupmyeondong": "",
        "address": "세종특별자치시 보람동656",
        "purpose": "생활방범",
        "latitude": 36.480738,
        "longitude": 127.293402,
        "storage_days": 30,
        "manager_phone": "044-300-2841"
    },
    {
        "id": 250823,
        "sido": "세종",
        "sigungu": "보람동633-8",
        "eupmyeondong": "",
        "address": "세종특별자치시 보람동633-8",
        "purpose": "생활방범",
        "latitude": 36.479033,
        "longitude": 127.29489,
        "storage_days": 30,
        "manager_phone": "044-300-2842"
    },
    {
        "id": 250824,
        "sido": "세종",
        "sigungu": "보람동700-94",
        "eupmyeondong": "",
        "address": "세종특별자치시 보람동700-94",
        "purpose": "생활방범",
        "latitude": 36.477791,
        "longitude": 127.287206,
        "storage_days": 30,
        "manager_phone": "044-300-2843"
    },
    {
        "id": 250825,
        "sido": "세종",
        "sigungu": "보람동700-77",
        "eupmyeondong": "",
        "address": "세종특별자치시 보람동700-77",
        "purpose": "생활방범",
        "latitude": 36.477779,
        "longitude": 127.287091,
        "storage_days": 30,
        "manager_phone": "044-300-2844"
    },
    {
        "id": 250826,
        "sido": "세종",
        "sigungu": "장군면",
        "eupmyeondong": "산학리",
        "address": "세종특별자치시 장군면 산학리 15-10",
        "purpose": "차량방범",
        "latitude": 36.475804,
        "longitude": 127.238405,
        "storage_days": 30,
        "manager_phone": "044-300-3334"
    },
    {
        "id": 250827,
        "sido": "세종",
        "sigungu": "장군면",
        "eupmyeondong": "장척로",
        "address": "세종특별자치시 장군면 장척로 359",
        "purpose": "생활방범",
        "latitude": 36.495283,
        "longitude": 127.202727,
        "storage_days": 30,
        "manager_phone": "044-300-3335"
    },
    {
        "id": 250828,
        "sido": "세종",
        "sigungu": "장군면",
        "eupmyeondong": "태산리",
        "address": "세종특별자치시 장군면 태산리 292-6",
        "purpose": "생활방범",
        "latitude": 36.54934,
        "longitude": 127.1904426,
        "storage_days": 30,
        "manager_phone": "044-300-3336"
    },
    {
        "id": 250829,
        "sido": "세종",
        "sigungu": "장군면",
        "eupmyeondong": "도계리",
        "address": "세종특별자치시 장군면 도계리 154-45",
        "purpose": "생활방범",
        "latitude": 36.497392,
        "longitude": 127.205711,
        "storage_days": 30,
        "manager_phone": "044-300-3337"
    },
    {
        "id": 250830,
        "sido": "세종",
        "sigungu": "장군면",
        "eupmyeondong": "금암리",
        "address": "세종특별자치시 장군면 금암리 411-1",
        "purpose": "생활방범",
        "latitude": 36.439381,
        "longitude": 127.206941,
        "storage_days": 30,
        "manager_phone": "044-300-3338"
    },
    {
        "id": 250831,
        "sido": "세종",
        "sigungu": "공주시",
        "eupmyeondong": "동현동",
        "address": "충청남도 공주시 동현동 19-48",
        "purpose": "차량방범",
        "latitude": 36.48918103,
        "longitude": 127.1928181,
        "storage_days": 30,
        "manager_phone": "044-300-3339"
    },
    {
        "id": 250832,
        "sido": "세종",
        "sigungu": "장군면",
        "eupmyeondong": "금암리",
        "address": "세종특별자치시 장군면 금암리 407",
        "purpose": "차량방범",
        "latitude": 36.43867393,
        "longitude": 127.209204,
        "storage_days": 30,
        "manager_phone": "044-300-3340"
    },
    {
        "id": 250833,
        "sido": "세종",
        "sigungu": "장군면",
        "eupmyeondong": "용암리",
        "address": "세종특별자치시 장군면 용암리 693",
        "purpose": "생활방범",
        "latitude": 36.561948,
        "longitude": 127.212122,
        "storage_days": 30,
        "manager_phone": "044-300-3341"
    },
    {
        "id": 250834,
        "sido": "세종",
        "sigungu": "장군면",
        "eupmyeondong": "용암리",
        "address": "세종특별자치시 장군면 용암리 713",
        "purpose": "생활방범",
        "latitude": 36.549303,
        "longitude": 127.206645,
        "storage_days": 30,
        "manager_phone": "044-300-3342"
    },
    {
        "id": 250835,
        "sido": "세종",
        "sigungu": "장군면",
        "eupmyeondong": "대교리",
        "address": "세종특별자치시 장군면 대교리 703",
        "purpose": "생활방범",
        "latitude": 36.510503,
        "longitude": 127.209181,
        "storage_days": 30,
        "manager_phone": "044-300-3343"
    },
    {
        "id": 250836,
        "sido": "세종",
        "sigungu": "장군면",
        "eupmyeondong": "금암리",
        "address": "세종특별자치시 장군면 금암리 407",
        "purpose": "차량방범",
        "latitude": 36.43867393,
        "longitude": 127.209204,
        "storage_days": 30,
        "manager_phone": "044-300-3344"
    },
    {
        "id": 250837,
        "sido": "세종",
        "sigungu": "장군면",
        "eupmyeondong": "봉안리",
        "address": "세종특별자치시 장군면 봉안리 506-1",
        "purpose": "생활방범",
        "latitude": 36.5034,
        "longitude": 127.2289,
        "storage_days": 30,
        "manager_phone": "044-300-3345"
    },
    {
        "id": 250838,
        "sido": "세종",
        "sigungu": "장척로",
        "eupmyeondong": "343-1",
        "address": "세종특별자치시 장척로 343-1",
        "purpose": "생활방범",
        "latitude": 36.499095,
        "longitude": 127.218259,
        "storage_days": 30,
        "manager_phone": "044-300-3346"
    },
    {
        "id": 250839,
        "sido": "세종",
        "sigungu": "정자말길",
        "eupmyeondong": "357",
        "address": "세종특별자치시 정자말길 357",
        "purpose": "생활방범",
        "latitude": 36.4382233,
        "longitude": 127.218637,
        "storage_days": 30,
        "manager_phone": "044-300-3347"
    },
    {
        "id": 250840,
        "sido": "세종",
        "sigungu": "장군면",
        "eupmyeondong": "금암리",
        "address": "세종특별자치시 장군면 금암리 193",
        "purpose": "생활방범",
        "latitude": 36.45959084,
        "longitude": 127.211882,
        "storage_days": 30,
        "manager_phone": "044-300-3348"
    },
    {
        "id": 250841,
        "sido": "세종",
        "sigungu": "소정면",
        "eupmyeondong": "소정구길",
        "address": "세종특별자치시 소정면 소정구길 185",
        "purpose": "생활방범",
        "latitude": 36.720582,
        "longitude": 127.157226,
        "storage_days": 30,
        "manager_phone": "044-300-3021"
    },
    {
        "id": 250842,
        "sido": "세종",
        "sigungu": "소정면",
        "eupmyeondong": "대곡리",
        "address": "세종특별자치시 소정면 대곡리 483-12",
        "purpose": "생활방범",
        "latitude": 36.724542,
        "longitude": 127.158941,
        "storage_days": 30,
        "manager_phone": "044-300-3022"
    },
    {
        "id": 250843,
        "sido": "세종",
        "sigungu": "소정면",
        "eupmyeondong": "소정리",
        "address": "세종특별자치시 소정면 소정리 583-1",
        "purpose": "생활방범",
        "latitude": 36.720299,
        "longitude": 127.158809,
        "storage_days": 30,
        "manager_phone": "044-300-3023"
    },
    {
        "id": 250844,
        "sido": "세종",
        "sigungu": "소정면",
        "eupmyeondong": "고등리",
        "address": "세종특별자치시 소정면 고등리 243-3",
        "purpose": "생활방범",
        "latitude": 36.71673,
        "longitude": 127.194703,
        "storage_days": 30,
        "manager_phone": "044-300-3024"
    },
    {
        "id": 250845,
        "sido": "세종",
        "sigungu": "소정면",
        "eupmyeondong": "운당리",
        "address": "세종특별자치시 소정면 운당리 198-1",
        "purpose": "생활방범",
        "latitude": 36.705871,
        "longitude": 127.148951,
        "storage_days": 30,
        "manager_phone": "044-300-3025"
    },
    {
        "id": 250846,
        "sido": "세종",
        "sigungu": "소정면",
        "eupmyeondong": "운당리",
        "address": "세종특별자치시 소정면 운당리 189",
        "purpose": "생활방범",
        "latitude": 36.706783,
        "longitude": 127.148062,
        "storage_days": 30,
        "manager_phone": "044-300-3026"
    },
    {
        "id": 250847,
        "sido": "세종",
        "sigungu": "소정면",
        "eupmyeondong": "소정구길",
        "address": "세종특별자치시 소정면 소정구길 204",
        "purpose": "생활방범",
        "latitude": 36.7221887,
        "longitude": 127.1578196,
        "storage_days": 30,
        "manager_phone": "044-300-3027"
    },
    {
        "id": 250848,
        "sido": "세종",
        "sigungu": "소정면",
        "eupmyeondong": "대곡리",
        "address": "세종특별자치시 소정면 대곡리 375-4",
        "purpose": "차량방범",
        "latitude": 36.732947,
        "longitude": 127.168595,
        "storage_days": 30,
        "manager_phone": "044-300-3028"
    },
    {
        "id": 250849,
        "sido": "세종",
        "sigungu": "소정면",
        "eupmyeondong": "소정리",
        "address": "세종특별자치시 소정면 소정리 38-2",
        "purpose": "생활방범",
        "latitude": 36.720895,
        "longitude": 127.158243,
        "storage_days": 30,
        "manager_phone": "044-300-3029"
    },
    {
        "id": 250850,
        "sido": "세종",
        "sigungu": "소정면",
        "eupmyeondong": "대사동길",
        "address": "세종특별자치시 소정면 대사동길 62",
        "purpose": "생활방범",
        "latitude": 36.722093,
        "longitude": 127.165015,
        "storage_days": 30,
        "manager_phone": "044-300-3030"
    },
    {
        "id": 250851,
        "sido": "세종",
        "sigungu": "소정면",
        "eupmyeondong": "운당길",
        "address": "세종특별자치시 소정면 운당길 3",
        "purpose": "생활방범",
        "latitude": 36.697208,
        "longitude": 127.15276,
        "storage_days": 30,
        "manager_phone": "044-300-3031"
    },
    {
        "id": 250852,
        "sido": "세종",
        "sigungu": "소정면",
        "eupmyeondong": "고등리",
        "address": "세종특별자치시 소정면 고등리 674",
        "purpose": "생활방범",
        "latitude": 36.70591,
        "longitude": 127.187712,
        "storage_days": 30,
        "manager_phone": "044-300-3032"
    },
    {
        "id": 250853,
        "sido": "세종",
        "sigungu": "소정면",
        "eupmyeondong": "대곡리",
        "address": "세종특별자치시 소정면 대곡리 369-1",
        "purpose": "차량방범",
        "latitude": 36.732936,
        "longitude": 127.168869,
        "storage_days": 30,
        "manager_phone": "044-300-3033"
    },
    {
        "id": 250854,
        "sido": "세종",
        "sigungu": "소정면",
        "eupmyeondong": "소정리",
        "address": "세종특별자치시 소정면 소정리 495일원",
        "purpose": "차량방범",
        "latitude": 36.713731,
        "longitude": 127.142821,
        "storage_days": 30,
        "manager_phone": "044-300-3034"
    },
    {
        "id": 250855,
        "sido": "세종",
        "sigungu": "소정면",
        "eupmyeondong": "소정구길",
        "address": "세종특별자치시 소정면 소정구길 167",
        "purpose": "생활방범",
        "latitude": 36.718966,
        "longitude": 127.156629,
        "storage_days": 30,
        "manager_phone": "044-300-3035"
    },
    {
        "id": 250856,
        "sido": "세종",
        "sigungu": "소정면",
        "eupmyeondong": "운당리",
        "address": "세종특별자치시 소정면 운당리 311",
        "purpose": "생활방범",
        "latitude": 36.70498,
        "longitude": 127.14745,
        "storage_days": 30,
        "manager_phone": "044-300-3036"
    },
    {
        "id": 250857,
        "sido": "세종",
        "sigungu": "소정면",
        "eupmyeondong": "대곡리",
        "address": "세종특별자치시 소정면 대곡리 570-1",
        "purpose": "생활방범",
        "latitude": 36.7248,
        "longitude": 127.15814,
        "storage_days": 30,
        "manager_phone": "044-300-3037"
    },
    {
        "id": 250858,
        "sido": "세종",
        "sigungu": "소정면",
        "eupmyeondong": "대곡리",
        "address": "세종특별자치시 소정면 대곡리 314-8",
        "purpose": "생활방범",
        "latitude": 36.728487,
        "longitude": 127.167521,
        "storage_days": 30,
        "manager_phone": "044-300-3038"
    },
    {
        "id": 250859,
        "sido": "세종",
        "sigungu": "소정면",
        "eupmyeondong": "대곡리",
        "address": "세종특별자치시 소정면 대곡리 566",
        "purpose": "생활방범",
        "latitude": 36.7277,
        "longitude": 127.1597,
        "storage_days": 30,
        "manager_phone": "044-300-3039"
    },
    {
        "id": 250860,
        "sido": "세종",
        "sigungu": "소정면",
        "eupmyeondong": "소정리",
        "address": "세종특별자치시 소정면 소정리 29-7",
        "purpose": "생활방범",
        "latitude": 36.7191,
        "longitude": 127.1574,
        "storage_days": 30,
        "manager_phone": "044-300-3040"
    },
    {
        "id": 250861,
        "sido": "세종",
        "sigungu": "조치원읍",
        "eupmyeondong": "원리",
        "address": "세종특별자치시 조치원읍 원리 13",
        "purpose": "생활방범",
        "latitude": 36.6020473,
        "longitude": 127.3005099,
        "storage_days": 30,
        "manager_phone": "044-300-3527"
    },
    {
        "id": 250862,
        "sido": "세종",
        "sigungu": "조치원읍",
        "eupmyeondong": "문화1길",
        "address": "세종특별자치시 조치원읍 문화1길 23",
        "purpose": "생활방범",
        "latitude": 36.601489,
        "longitude": 127.289212,
        "storage_days": 30,
        "manager_phone": "044-300-3528"
    },
    {
        "id": 250863,
        "sido": "세종",
        "sigungu": "청주시",
        "eupmyeondong": "오송읍",
        "address": "충청북도 청주시 오송읍 서평리 693-45",
        "purpose": "생활방범",
        "latitude": 36.5858369,
        "longitude": 127.3002997,
        "storage_days": 30,
        "manager_phone": "044-300-3529"
    },
    {
        "id": 250864,
        "sido": "세종",
        "sigungu": "조치원읍",
        "eupmyeondong": "행복5길",
        "address": "세종특별자치시 조치원읍 행복5길 7",
        "purpose": "생활방범",
        "latitude": 36.604734,
        "longitude": 127.29111,
        "storage_days": 30,
        "manager_phone": "044-300-3530"
    },
    {
        "id": 250865,
        "sido": "세종",
        "sigungu": "조치원읍",
        "eupmyeondong": "원리",
        "address": "세종특별자치시 조치원읍 원리 157",
        "purpose": "생활방범",
        "latitude": 36.5974294,
        "longitude": 127.297218,
        "storage_days": 30,
        "manager_phone": "044-300-3531"
    },
    {
        "id": 250866,
        "sido": "세종",
        "sigungu": "조치원읍",
        "eupmyeondong": "신안리",
        "address": "세종특별자치시 조치원읍 신안리 320-6",
        "purpose": "생활방범",
        "latitude": 36.6185089,
        "longitude": 127.2900945,
        "storage_days": 30,
        "manager_phone": "044-300-3532"
    },
    {
        "id": 250867,
        "sido": "세종",
        "sigungu": "조치원읍",
        "eupmyeondong": "새내14길",
        "address": "세종특별자치시 조치원읍 새내14길 42",
        "purpose": "생활방범",
        "latitude": 36.603048,
        "longitude": 127.30024,
        "storage_days": 30,
        "manager_phone": "044-300-3533"
    },
    {
        "id": 250868,
        "sido": "세종",
        "sigungu": "조치원읍",
        "eupmyeondong": "번암리",
        "address": "세종특별자치시 조치원읍 번암리 209-4",
        "purpose": "생활방범",
        "latitude": 36.58305,
        "longitude": 127.291729,
        "storage_days": 30,
        "manager_phone": "044-300-3534"
    },
    {
        "id": 250869,
        "sido": "세종",
        "sigungu": "조치원읍",
        "eupmyeondong": "수원지길",
        "address": "세종특별자치시 조치원읍 수원지길 67",
        "purpose": "생활방범",
        "latitude": 36.6057666,
        "longitude": 127.3013001,
        "storage_days": 30,
        "manager_phone": "044-300-3535"
    },
    {
        "id": 250870,
        "sido": "세종",
        "sigungu": "조치원읍",
        "eupmyeondong": "수원지3길",
        "address": "세종특별자치시 조치원읍 수원지3길 17",
        "purpose": "생활방범",
        "latitude": 36.6052993,
        "longitude": 127.3007611,
        "storage_days": 30,
        "manager_phone": "044-300-3536"
    },
    {
        "id": 250871,
        "sido": "세종",
        "sigungu": "조치원읍",
        "eupmyeondong": "새내14길",
        "address": "세종특별자치시 조치원읍 새내14길 97",
        "purpose": "생활방범",
        "latitude": 36.6042155,
        "longitude": 127.302864,
        "storage_days": 30,
        "manager_phone": "044-300-3537"
    },
    {
        "id": 250872,
        "sido": "세종",
        "sigungu": "조치원읍",
        "eupmyeondong": "평리",
        "address": "세종특별자치시 조치원읍 평리 115-20",
        "purpose": "생활방범",
        "latitude": 36.6035759,
        "longitude": 127.3013243,
        "storage_days": 30,
        "manager_phone": "044-300-3538"
    },
    {
        "id": 250873,
        "sido": "세종",
        "sigungu": "조치원읍",
        "eupmyeondong": "새내12길",
        "address": "세종특별자치시 조치원읍 새내12길 68",
        "purpose": "생활방범",
        "latitude": 36.602847,
        "longitude": 127.301795,
        "storage_days": 30,
        "manager_phone": "044-300-3539"
    },
    {
        "id": 250874,
        "sido": "세종",
        "sigungu": "조치원읍",
        "eupmyeondong": "안티길",
        "address": "세종특별자치시 조치원읍 안티길 8",
        "purpose": "차량방범",
        "latitude": 36.625404,
        "longitude": 127.289933,
        "storage_days": 30,
        "manager_phone": "044-300-3540"
    },
    {
        "id": 250875,
        "sido": "세종",
        "sigungu": "조치원읍",
        "eupmyeondong": "으뜸길",
        "address": "세종특별자치시 조치원읍 으뜸길 215",
        "purpose": "생활방범",
        "latitude": 36.603741,
        "longitude": 127.296243,
        "storage_days": 30,
        "manager_phone": "044-300-3541"
    },
    {
        "id": 250876,
        "sido": "세종",
        "sigungu": "조치원읍",
        "eupmyeondong": "으뜸길",
        "address": "세종특별자치시 조치원읍 으뜸길 215",
        "purpose": "생활방범",
        "latitude": 36.6037983,
        "longitude": 127.2962198,
        "storage_days": 30,
        "manager_phone": "044-300-3542"
    },
    {
        "id": 250877,
        "sido": "세종",
        "sigungu": "조치원읍",
        "eupmyeondong": "죽림리",
        "address": "세종특별자치시 조치원읍 죽림리 132",
        "purpose": "생활방범",
        "latitude": 36.590438,
        "longitude": 127.292767,
        "storage_days": 30,
        "manager_phone": "044-300-3543"
    },
    {
        "id": 250878,
        "sido": "세종",
        "sigungu": "조치원읍",
        "eupmyeondong": "명리82",
        "address": "세종특별자치시 조치원읍 명리82",
        "purpose": "생활방범",
        "latitude": 36.60062,
        "longitude": 127.301301,
        "storage_days": 30,
        "manager_phone": "044-300-3544"
    },
    {
        "id": 250879,
        "sido": "세종",
        "sigungu": "장군면",
        "eupmyeondong": "하봉리",
        "address": "세종특별자치시 장군면 하봉리 445-57",
        "purpose": "생활방범",
        "latitude": 36.49600204,
        "longitude": 127.192935,
        "storage_days": 30,
        "manager_phone": "044-300-3349"
    },
    {
        "id": 250880,
        "sido": "세종",
        "sigungu": "장군면",
        "eupmyeondong": "하봉리",
        "address": "세종특별자치시 장군면 하봉리 92",
        "purpose": "생활방범",
        "latitude": 36.49763931,
        "longitude": 127.1888819,
        "storage_days": 30,
        "manager_phone": "044-300-3350"
    },
    {
        "id": 250881,
        "sido": "세종",
        "sigungu": "공주시",
        "eupmyeondong": "동현동",
        "address": "충청남도 공주시 동현동 19-48",
        "purpose": "차량방범",
        "latitude": 36.48918103,
        "longitude": 127.1928181,
        "storage_days": 30,
        "manager_phone": "044-300-3351"
    },
    {
        "id": 250882,
        "sido": "세종",
        "sigungu": "장군면",
        "eupmyeondong": "금암리",
        "address": "세종특별자치시 장군면 금암리 202",
        "purpose": "생활방범",
        "latitude": 36.45779,
        "longitude": 127.21183,
        "storage_days": 30,
        "manager_phone": "044-300-3352"
    },
    {
        "id": 250883,
        "sido": "세종",
        "sigungu": "장군면",
        "eupmyeondong": "금암리",
        "address": "세종특별자치시 장군면 금암리 620",
        "purpose": "생활방범",
        "latitude": 36.45659,
        "longitude": 127.21101,
        "storage_days": 30,
        "manager_phone": "044-300-3353"
    },
    {
        "id": 250884,
        "sido": "세종",
        "sigungu": "장군면",
        "eupmyeondong": "금암리",
        "address": "세종특별자치시 장군면 금암리 218-7",
        "purpose": "생활방범",
        "latitude": 36.45647,
        "longitude": 127.21051,
        "storage_days": 30,
        "manager_phone": "044-300-3354"
    },
    {
        "id": 250885,
        "sido": "세종",
        "sigungu": "장군면",
        "eupmyeondong": "금암리",
        "address": "세종특별자치시 장군면 금암리 622",
        "purpose": "생활방범",
        "latitude": 36.45546,
        "longitude": 127.21169,
        "storage_days": 30,
        "manager_phone": "044-300-3355"
    },
    {
        "id": 250886,
        "sido": "세종",
        "sigungu": "장군면",
        "eupmyeondong": "금암리",
        "address": "세종특별자치시 장군면 금암리 230-9",
        "purpose": "생활방범",
        "latitude": 36.4549,
        "longitude": 127.21208,
        "storage_days": 30,
        "manager_phone": "044-300-3356"
    },
    {
        "id": 250887,
        "sido": "세종",
        "sigungu": "전동면",
        "eupmyeondong": "노장리",
        "address": "세종특별자치시 전동면 노장리 687-24",
        "purpose": "생활방범",
        "latitude": 36.664111,
        "longitude": 127.274044,
        "storage_days": 30,
        "manager_phone": "044-300-3357"
    },
    {
        "id": 250888,
        "sido": "세종",
        "sigungu": "전동면",
        "eupmyeondong": "송성길",
        "address": "세종특별자치시 전동면 송성길 166",
        "purpose": "생활방범",
        "latitude": 36.638001,
        "longitude": 127.217282,
        "storage_days": 30,
        "manager_phone": "044-300-3358"
    },
    {
        "id": 250889,
        "sido": "세종",
        "sigungu": "전동면",
        "eupmyeondong": "송정리",
        "address": "세종특별자치시 전동면 송정리 311",
        "purpose": "생활방범",
        "latitude": 36.625065,
        "longitude": 127.232756,
        "storage_days": 30,
        "manager_phone": "044-300-3359"
    },
    {
        "id": 250890,
        "sido": "세종",
        "sigungu": "전동면",
        "eupmyeondong": "금이로",
        "address": "세종특별자치시 전동면 금이로 184",
        "purpose": "생활방범",
        "latitude": 36.630762,
        "longitude": 127.269569,
        "storage_days": 30,
        "manager_phone": "044-300-3360"
    },
    {
        "id": 250891,
        "sido": "세종",
        "sigungu": "전동면",
        "eupmyeondong": "청송리",
        "address": "세종특별자치시 전동면 청송리 556-2",
        "purpose": "생활방범",
        "latitude": 36.661699,
        "longitude": 127.257264,
        "storage_days": 30,
        "manager_phone": "044-300-3361"
    },
    {
        "id": 250892,
        "sido": "세종",
        "sigungu": "전동면",
        "eupmyeondong": "노장리",
        "address": "세종특별자치시 전동면 노장리 588-7",
        "purpose": "생활방범",
        "latitude": 36.655589,
        "longitude": 127.267214,
        "storage_days": 30,
        "manager_phone": "044-300-3362"
    },
    {
        "id": 250893,
        "sido": "세종",
        "sigungu": "전동면",
        "eupmyeondong": "노장리",
        "address": "세종특별자치시 전동면 노장리 708-4",
        "purpose": "생활방범",
        "latitude": 36.655247,
        "longitude": 127.264358,
        "storage_days": 30,
        "manager_phone": "044-300-3363"
    },
    {
        "id": 250894,
        "sido": "세종",
        "sigungu": "전동면",
        "eupmyeondong": "미곡리",
        "address": "세종특별자치시 전동면 미곡리 118-3",
        "purpose": "생활방범",
        "latitude": 36.6705787,
        "longitude": 127.2246817,
        "storage_days": 30,
        "manager_phone": "044-300-3364"
    },
    {
        "id": 250895,
        "sido": "세종",
        "sigungu": "전동면",
        "eupmyeondong": "심중리",
        "address": "세종특별자치시 전동면 심중리 351-2",
        "purpose": "생활방범",
        "latitude": 36.6440785,
        "longitude": 127.2764152,
        "storage_days": 30,
        "manager_phone": "044-300-3365"
    },
    {
        "id": 250896,
        "sido": "세종",
        "sigungu": "전동면",
        "eupmyeondong": "능골길",
        "address": "세종특별자치시 전동면 능골길 11-1",
        "purpose": "생활방범",
        "latitude": 36.6305446,
        "longitude": 127.2563602,
        "storage_days": 30,
        "manager_phone": "044-300-3366"
    },
    {
        "id": 250897,
        "sido": "세종",
        "sigungu": "산울동",
        "eupmyeondong": "369-1",
        "address": "세종특별자치시 산울동 369-1",
        "purpose": "생활방범",
        "latitude": 36.527011,
        "longitude": 127.2613749,
        "storage_days": 30,
        "manager_phone": "044-300-3881"
    },
    {
        "id": 250898,
        "sido": "세종",
        "sigungu": "아름동",
        "eupmyeondong": "1479",
        "address": "세종특별자치시 아름동 1479",
        "purpose": "생활방범",
        "latitude": 36.52552288,
        "longitude": 127.2608995,
        "storage_days": 30,
        "manager_phone": "044-300-3882"
    },
    {
        "id": 250899,
        "sido": "세종",
        "sigungu": "아름동",
        "eupmyeondong": "1478",
        "address": "세종특별자치시 아름동 1478",
        "purpose": "생활방범",
        "latitude": 36.52643254,
        "longitude": 127.2564615,
        "storage_days": 30,
        "manager_phone": "044-300-3883"
    },
    {
        "id": 250900,
        "sido": "세종",
        "sigungu": "산울동",
        "eupmyeondong": "238",
        "address": "세종특별자치시 산울동 238",
        "purpose": "생활방범",
        "latitude": 36.5328942,
        "longitude": 127.2619753,
        "storage_days": 30,
        "manager_phone": "044-300-3884"
    },
    {
        "id": 250901,
        "sido": "세종",
        "sigungu": "산울동",
        "eupmyeondong": "245",
        "address": "세종특별자치시 산울동 245",
        "purpose": "생활방범",
        "latitude": 36.53470605,
        "longitude": 127.2627547,
        "storage_days": 30,
        "manager_phone": "044-300-3885"
    },
    {
        "id": 250902,
        "sido": "세종",
        "sigungu": "산울동",
        "eupmyeondong": "184-5",
        "address": "세종특별자치시 산울동 184-5",
        "purpose": "생활방범",
        "latitude": 36.53315976,
        "longitude": 127.2651587,
        "storage_days": 30,
        "manager_phone": "044-300-3886"
    },
    {
        "id": 250903,
        "sido": "세종",
        "sigungu": "산울동",
        "eupmyeondong": "산",
        "address": "세종특별자치시 산울동 산 10",
        "purpose": "생활방범",
        "latitude": 36.53066076,
        "longitude": 127.265915,
        "storage_days": 30,
        "manager_phone": "044-300-3887"
    },
    {
        "id": 250904,
        "sido": "세종",
        "sigungu": "한별동",
        "eupmyeondong": "산10",
        "address": "세종특별자치시 한별동 산10",
        "purpose": "생활방범",
        "latitude": 36.53291021,
        "longitude": 127.2704466,
        "storage_days": 30,
        "manager_phone": "044-300-3888"
    },
    {
        "id": 250905,
        "sido": "세종",
        "sigungu": "산울동",
        "eupmyeondong": "118",
        "address": "세종특별자치시 산울동 118",
        "purpose": "생활방범",
        "latitude": 36.53601096,
        "longitude": 127.2695961,
        "storage_days": 30,
        "manager_phone": "044-300-3889"
    },
    {
        "id": 250906,
        "sido": "세종",
        "sigungu": "산울동",
        "eupmyeondong": "199",
        "address": "세종특별자치시 산울동 199",
        "purpose": "생활방범",
        "latitude": 36.53600533,
        "longitude": 127.2660869,
        "storage_days": 30,
        "manager_phone": "044-300-3890"
    },
    {
        "id": 250907,
        "sido": "세종",
        "sigungu": "산울동",
        "eupmyeondong": "215-3",
        "address": "세종특별자치시 산울동 215-3",
        "purpose": "생활방범",
        "latitude": 36.53571825,
        "longitude": 127.2644918,
        "storage_days": 30,
        "manager_phone": "044-300-3891"
    },
    {
        "id": 250908,
        "sido": "세종",
        "sigungu": "도담동",
        "eupmyeondong": "663",
        "address": "세종특별자치시 도담동 663",
        "purpose": "생활방범",
        "latitude": 36.51381652,
        "longitude": 127.259014,
        "storage_days": 30,
        "manager_phone": "044-300-3892"
    },
    {
        "id": 250909,
        "sido": "세종",
        "sigungu": "해밀3로",
        "eupmyeondong": "90",
        "address": "세종특별자치시 해밀3로 90",
        "purpose": "생활방범",
        "latitude": 36.52799684,
        "longitude": 127.2703778,
        "storage_days": 30,
        "manager_phone": "044-300-3893"
    },
    {
        "id": 250910,
        "sido": "세종",
        "sigungu": "해밀3로",
        "eupmyeondong": "32",
        "address": "세종특별자치시 해밀3로 32",
        "purpose": "생활방범",
        "latitude": 36.52627018,
        "longitude": 127.2673041,
        "storage_days": 30,
        "manager_phone": "044-300-3894"
    },
    {
        "id": 250911,
        "sido": "세종",
        "sigungu": "해밀3로",
        "eupmyeondong": "32",
        "address": "세종특별자치시 해밀3로 32",
        "purpose": "생활방범",
        "latitude": 36.52627917,
        "longitude": 127.2673139,
        "storage_days": 30,
        "manager_phone": "044-300-3895"
    },
    {
        "id": 250912,
        "sido": "세종",
        "sigungu": "한솔동",
        "eupmyeondong": "1239",
        "address": "세종특별자치시 한솔동 1239",
        "purpose": "생활방범",
        "latitude": 36.47526303,
        "longitude": 127.2499214,
        "storage_days": 30,
        "manager_phone": "044-300-3896"
    },
    {
        "id": 250913,
        "sido": "세종",
        "sigungu": "도담동",
        "eupmyeondong": "900",
        "address": "세종특별자치시 도담동 900",
        "purpose": "생활방범",
        "latitude": 36.51778529,
        "longitude": 127.2583476,
        "storage_days": 30,
        "manager_phone": "044-300-3897"
    },
    {
        "id": 250914,
        "sido": "세종",
        "sigungu": "도담동",
        "eupmyeondong": "900",
        "address": "세종특별자치시 도담동 900",
        "purpose": "생활방범",
        "latitude": 36.51987876,
        "longitude": 127.2601716,
        "storage_days": 30,
        "manager_phone": "044-300-3898"
    },
    {
        "id": 250915,
        "sido": "세종",
        "sigungu": "한솔동",
        "eupmyeondong": "1073",
        "address": "세종특별자치시 한솔동 1073",
        "purpose": "생활방범",
        "latitude": 36.47912038,
        "longitude": 127.2497343,
        "storage_days": 30,
        "manager_phone": "044-300-3899"
    },
    {
        "id": 250916,
        "sido": "세종",
        "sigungu": "새롬동",
        "eupmyeondong": "148-1",
        "address": "세종특별자치시 새롬동 148-1",
        "purpose": "생활방범",
        "latitude": 36.48952806,
        "longitude": 127.2527406,
        "storage_days": 30,
        "manager_phone": "044-300-3900"
    },
    {
        "id": 250917,
        "sido": "세종",
        "sigungu": "조치원읍",
        "eupmyeondong": "원리",
        "address": "세종특별자치시 조치원읍 원리 141-54",
        "purpose": "생활방범",
        "latitude": 36.600828,
        "longitude": 127.296822,
        "storage_days": 30,
        "manager_phone": "044-300-3545"
    },
    {
        "id": 250918,
        "sido": "세종",
        "sigungu": "조치원읍",
        "eupmyeondong": "수원지길",
        "address": "세종특별자치시 조치원읍 수원지길 49",
        "purpose": "생활방범",
        "latitude": 36.606153,
        "longitude": 127.300447,
        "storage_days": 30,
        "manager_phone": "044-300-3546"
    },
    {
        "id": 250919,
        "sido": "세종",
        "sigungu": "조치원읍",
        "eupmyeondong": "죽림리",
        "address": "세종특별자치시 조치원읍 죽림리 68-10",
        "purpose": "생활방범",
        "latitude": 36.594286,
        "longitude": 127.295185,
        "storage_days": 30,
        "manager_phone": "044-300-3547"
    },
    {
        "id": 250920,
        "sido": "세종",
        "sigungu": "조치원읍",
        "eupmyeondong": "행복길",
        "address": "세종특별자치시 조치원읍 행복길 5",
        "purpose": "생활방범",
        "latitude": 36.603257,
        "longitude": 127.290349,
        "storage_days": 30,
        "manager_phone": "044-300-3548"
    },
    {
        "id": 250921,
        "sido": "세종",
        "sigungu": "조치원읍",
        "eupmyeondong": "신흥샛터길",
        "address": "세종특별자치시 조치원읍 신흥샛터길 29",
        "purpose": "생활방범",
        "latitude": 36.5969944,
        "longitude": 127.2935592,
        "storage_days": 30,
        "manager_phone": "044-300-3549"
    },
    {
        "id": 250922,
        "sido": "세종",
        "sigungu": "조치원읍",
        "eupmyeondong": "봉산리",
        "address": "세종특별자치시 조치원읍 봉산리 산20-11",
        "purpose": "생활방범",
        "latitude": 36.604034,
        "longitude": 127.27523,
        "storage_days": 30,
        "manager_phone": "044-300-3550"
    },
    {
        "id": 250923,
        "sido": "세종",
        "sigungu": "조치원읍",
        "eupmyeondong": "남리144",
        "address": "세종특별자치시 조치원읍 남리144",
        "purpose": "생활방범",
        "latitude": 36.597678,
        "longitude": 127.3024523,
        "storage_days": 30,
        "manager_phone": "044-300-3551"
    },
    {
        "id": 250924,
        "sido": "세종",
        "sigungu": "조치원읍",
        "eupmyeondong": "수원지1길",
        "address": "세종특별자치시 조치원읍 수원지1길 16",
        "purpose": "생활방범",
        "latitude": 36.6071668,
        "longitude": 127.2996968,
        "storage_days": 30,
        "manager_phone": "044-300-3552"
    },
    {
        "id": 250925,
        "sido": "세종",
        "sigungu": "조치원읍",
        "eupmyeondong": "행복4길",
        "address": "세종특별자치시 조치원읍 행복4길 18",
        "purpose": "생활방범",
        "latitude": 36.60447,
        "longitude": 127.291885,
        "storage_days": 30,
        "manager_phone": "044-300-3553"
    },
    {
        "id": 250926,
        "sido": "세종",
        "sigungu": "조치원읍",
        "eupmyeondong": "새내로",
        "address": "세종특별자치시 조치원읍 새내로 108",
        "purpose": "생활방범",
        "latitude": 36.6013731,
        "longitude": 127.2985986,
        "storage_days": 30,
        "manager_phone": "044-300-3554"
    },
    {
        "id": 250927,
        "sido": "세종",
        "sigungu": "조치원읍",
        "eupmyeondong": "새내14길",
        "address": "세종특별자치시 조치원읍 새내14길 7",
        "purpose": "생활방범",
        "latitude": 36.603245,
        "longitude": 127.297847,
        "storage_days": 30,
        "manager_phone": "044-300-3555"
    },
    {
        "id": 250928,
        "sido": "세종",
        "sigungu": "조치원읍",
        "eupmyeondong": "교리",
        "address": "세종특별자치시 조치원읍 교리 27-1",
        "purpose": "생활방범",
        "latitude": 36.604976,
        "longitude": 127.298057,
        "storage_days": 30,
        "manager_phone": "044-300-3556"
    },
    {
        "id": 250929,
        "sido": "세종",
        "sigungu": "조치원읍",
        "eupmyeondong": "상리18-10",
        "address": "세종특별자치시 조치원읍 상리18-10",
        "purpose": "생활방범",
        "latitude": 36.6024343,
        "longitude": 127.3031453,
        "storage_days": 30,
        "manager_phone": "044-300-3557"
    },
    {
        "id": 250930,
        "sido": "세종",
        "sigungu": "조치원읍",
        "eupmyeondong": "침산리",
        "address": "세종특별자치시 조치원읍 침산리 60-2",
        "purpose": "생활방범",
        "latitude": 36.6034086,
        "longitude": 127.2874727,
        "storage_days": 30,
        "manager_phone": "044-300-3558"
    },
    {
        "id": 250931,
        "sido": "세종",
        "sigungu": "반곡동",
        "eupmyeondong": "201-4",
        "address": "세종특별자치시 반곡동 201-4",
        "purpose": "생활방범",
        "latitude": 36.48095594,
        "longitude": 127.3164448,
        "storage_days": 30,
        "manager_phone": "044-300-3944"
    },
    {
        "id": 250932,
        "sido": "세종",
        "sigungu": "보람동",
        "eupmyeondong": "314-31",
        "address": "세종특별자치시 보람동 314-31",
        "purpose": "생활방범",
        "latitude": 36.47651839,
        "longitude": 127.2782051,
        "storage_days": 30,
        "manager_phone": "044-300-3945"
    },
    {
        "id": 250933,
        "sido": "세종",
        "sigungu": "보람동",
        "eupmyeondong": "314-47",
        "address": "세종특별자치시 보람동 314-47",
        "purpose": "생활방범",
        "latitude": 36.47694138,
        "longitude": 127.2789249,
        "storage_days": 30,
        "manager_phone": "044-300-3946"
    },
    {
        "id": 250934,
        "sido": "세종",
        "sigungu": "소담동",
        "eupmyeondong": "435-1",
        "address": "세종특별자치시 소담동 435-1",
        "purpose": "생활방범",
        "latitude": 36.48672745,
        "longitude": 127.2950595,
        "storage_days": 30,
        "manager_phone": "044-300-3947"
    },
    {
        "id": 250935,
        "sido": "세종",
        "sigungu": "소담동",
        "eupmyeondong": "510-17",
        "address": "세종특별자치시 소담동 510-17",
        "purpose": "생활방범",
        "latitude": 36.48716483,
        "longitude": 127.2958423,
        "storage_days": 30,
        "manager_phone": "044-300-3948"
    },
    {
        "id": 250936,
        "sido": "세종",
        "sigungu": "나성동",
        "eupmyeondong": "823",
        "address": "세종특별자치시 나성동 823",
        "purpose": "생활방범",
        "latitude": 36.48529484,
        "longitude": 127.2616406,
        "storage_days": 30,
        "manager_phone": "044-300-3949"
    },
    {
        "id": 250937,
        "sido": "세종",
        "sigungu": "나성동",
        "eupmyeondong": "235-11",
        "address": "세종특별자치시 나성동 235-11",
        "purpose": "생활방범",
        "latitude": 36.48548786,
        "longitude": 127.2629972,
        "storage_days": 30,
        "manager_phone": "044-300-3950"
    },
    {
        "id": 250938,
        "sido": "세종",
        "sigungu": "어울누리로",
        "eupmyeondong": "30",
        "address": "세종특별자치시 어울누리로 30",
        "purpose": "생활방범",
        "latitude": 36.48669989,
        "longitude": 127.2650463,
        "storage_days": 30,
        "manager_phone": "044-300-3951"
    },
    {
        "id": 250939,
        "sido": "세종",
        "sigungu": "나성동",
        "eupmyeondong": "251-3",
        "address": "세종특별자치시 나성동 251-3",
        "purpose": "생활방범",
        "latitude": 36.48675353,
        "longitude": 127.265239,
        "storage_days": 30,
        "manager_phone": "044-300-3952"
    },
    {
        "id": 250940,
        "sido": "세종",
        "sigungu": "고운동",
        "eupmyeondong": "2160",
        "address": "세종특별자치시 고운동 2160",
        "purpose": "생활방범",
        "latitude": 36.50923731,
        "longitude": 127.2385954,
        "storage_days": 30,
        "manager_phone": "044-300-3953"
    },
    {
        "id": 250941,
        "sido": "세종",
        "sigungu": "만남로",
        "eupmyeondong": "151",
        "address": "세종특별자치시 만남로 151",
        "purpose": "생활방범",
        "latitude": 36.51077389,
        "longitude": 127.2362753,
        "storage_days": 30,
        "manager_phone": "044-300-3954"
    },
    {
        "id": 250942,
        "sido": "세종",
        "sigungu": "고운동",
        "eupmyeondong": "2084",
        "address": "세종특별자치시 고운동 2084",
        "purpose": "생활방범",
        "latitude": 36.51402391,
        "longitude": 127.240667,
        "storage_days": 30,
        "manager_phone": "044-300-3955"
    },
    {
        "id": 250943,
        "sido": "세종",
        "sigungu": "어진동",
        "eupmyeondong": "676",
        "address": "세종특별자치시 어진동 676",
        "purpose": "생활방범",
        "latitude": 36.49788466,
        "longitude": 127.2540387,
        "storage_days": 30,
        "manager_phone": "044-300-3956"
    },
    {
        "id": 250944,
        "sido": "세종",
        "sigungu": "어진동",
        "eupmyeondong": "519",
        "address": "세종특별자치시 어진동 519",
        "purpose": "생활방범",
        "latitude": 36.49980387,
        "longitude": 127.2546854,
        "storage_days": 30,
        "manager_phone": "044-300-3957"
    },
    {
        "id": 250945,
        "sido": "세종",
        "sigungu": "다정동",
        "eupmyeondong": "739",
        "address": "세종특별자치시 다정동 739",
        "purpose": "생활방범",
        "latitude": 36.49834222,
        "longitude": 127.2369616,
        "storage_days": 30,
        "manager_phone": "044-300-3958"
    },
    {
        "id": 250946,
        "sido": "세종",
        "sigungu": "새롬동",
        "eupmyeondong": "559",
        "address": "세종특별자치시 새롬동 559",
        "purpose": "생활방범",
        "latitude": 36.48991719,
        "longitude": 127.2525033,
        "storage_days": 30,
        "manager_phone": "044-300-3959"
    },
    {
        "id": 250947,
        "sido": "세종",
        "sigungu": "새롬로",
        "eupmyeondong": "19",
        "address": "세종특별자치시 새롬로 19",
        "purpose": "생활방범",
        "latitude": 36.4861301,
        "longitude": 127.254084,
        "storage_days": 30,
        "manager_phone": "044-300-3960"
    },
    {
        "id": 250948,
        "sido": "세종",
        "sigungu": "나성동",
        "eupmyeondong": "823",
        "address": "세종특별자치시 나성동 823",
        "purpose": "생활방범",
        "latitude": 36.48832515,
        "longitude": 127.26002,
        "storage_days": 30,
        "manager_phone": "044-300-3961"
    },
    {
        "id": 250949,
        "sido": "세종",
        "sigungu": "나성동",
        "eupmyeondong": "298-10",
        "address": "세종특별자치시 나성동 298-10",
        "purpose": "생활방범",
        "latitude": 36.48921913,
        "longitude": 127.2653255,
        "storage_days": 30,
        "manager_phone": "044-300-3962"
    },
    {
        "id": 250950,
        "sido": "세종",
        "sigungu": "대평동",
        "eupmyeondong": "703",
        "address": "세종특별자치시 대평동 703",
        "purpose": "생활방범",
        "latitude": 36.47342536,
        "longitude": 127.2829138,
        "storage_days": 30,
        "manager_phone": "044-300-3963"
    },
    {
        "id": 250951,
        "sido": "세종",
        "sigungu": "보람동",
        "eupmyeondong": "736",
        "address": "세종특별자치시 보람동 736",
        "purpose": "생활방범",
        "latitude": 36.47535557,
        "longitude": 127.2854998,
        "storage_days": 30,
        "manager_phone": "044-300-3964"
    },
    {
        "id": 250952,
        "sido": "세종",
        "sigungu": "보람동",
        "eupmyeondong": "771",
        "address": "세종특별자치시 보람동 771",
        "purpose": "생활방범",
        "latitude": 36.47885289,
        "longitude": 127.2939737,
        "storage_days": 30,
        "manager_phone": "044-300-3965"
    },
    {
        "id": 250953,
        "sido": "세종",
        "sigungu": "대평동",
        "eupmyeondong": "65-39",
        "address": "세종특별자치시 대평동 65-39",
        "purpose": "생활방범",
        "latitude": 36.47272402,
        "longitude": 127.275992,
        "storage_days": 30,
        "manager_phone": "044-300-3901"
    },
    {
        "id": 250954,
        "sido": "세종",
        "sigungu": "대평동",
        "eupmyeondong": "611-2",
        "address": "세종특별자치시 대평동 611-2",
        "purpose": "생활방범",
        "latitude": 36.47196247,
        "longitude": 127.2765067,
        "storage_days": 30,
        "manager_phone": "044-300-3902"
    },
    {
        "id": 250955,
        "sido": "세종",
        "sigungu": "대평동",
        "eupmyeondong": "643",
        "address": "세종특별자치시 대평동 643",
        "purpose": "생활방범",
        "latitude": 36.47052976,
        "longitude": 127.2730261,
        "storage_days": 30,
        "manager_phone": "044-300-3903"
    },
    {
        "id": 250956,
        "sido": "세종",
        "sigungu": "반곡동",
        "eupmyeondong": "산56",
        "address": "세종특별자치시 반곡동 산56",
        "purpose": "생활방범",
        "latitude": 36.49285789,
        "longitude": 127.3047898,
        "storage_days": 30,
        "manager_phone": "044-300-3904"
    },
    {
        "id": 250957,
        "sido": "세종",
        "sigungu": "만남로",
        "eupmyeondong": "151",
        "address": "세종특별자치시 만남로 151",
        "purpose": "생활방범",
        "latitude": 36.51263057,
        "longitude": 127.2366912,
        "storage_days": 30,
        "manager_phone": "044-300-3905"
    },
    {
        "id": 250958,
        "sido": "세종",
        "sigungu": "도담동",
        "eupmyeondong": "679",
        "address": "세종특별자치시 도담동 679",
        "purpose": "생활방범",
        "latitude": 36.51493879,
        "longitude": 127.2572971,
        "storage_days": 30,
        "manager_phone": "044-300-3906"
    },
    {
        "id": 250959,
        "sido": "세종",
        "sigungu": "세종동",
        "eupmyeondong": "548-119",
        "address": "세종특별자치시 세종동 548-119",
        "purpose": "생활방범",
        "latitude": 36.49133569,
        "longitude": 127.2703592,
        "storage_days": 30,
        "manager_phone": "044-300-3907"
    },
    {
        "id": 250960,
        "sido": "세종",
        "sigungu": "세종동",
        "eupmyeondong": "107-81",
        "address": "세종특별자치시 세종동 107-81",
        "purpose": "생활방범",
        "latitude": 36.49312929,
        "longitude": 127.2731947,
        "storage_days": 30,
        "manager_phone": "044-300-3908"
    },
    {
        "id": 250961,
        "sido": "세종",
        "sigungu": "세종동",
        "eupmyeondong": "107-251",
        "address": "세종특별자치시 세종동 107-251",
        "purpose": "생활방범",
        "latitude": 36.49450151,
        "longitude": 127.2731018,
        "storage_days": 30,
        "manager_phone": "044-300-3909"
    },
    {
        "id": 250962,
        "sido": "세종",
        "sigungu": "세종동",
        "eupmyeondong": "107-77",
        "address": "세종특별자치시 세종동 107-77",
        "purpose": "생활방범",
        "latitude": 36.49377451,
        "longitude": 127.2737898,
        "storage_days": 30,
        "manager_phone": "044-300-3910"
    },
    {
        "id": 250963,
        "sido": "세종",
        "sigungu": "세종동",
        "eupmyeondong": "107-262",
        "address": "세종특별자치시 세종동 107-262",
        "purpose": "생활방범",
        "latitude": 36.49427909,
        "longitude": 127.2757727,
        "storage_days": 30,
        "manager_phone": "044-300-3911"
    },
    {
        "id": 250964,
        "sido": "세종",
        "sigungu": "세종동",
        "eupmyeondong": "107-54",
        "address": "세종특별자치시 세종동 107-54",
        "purpose": "생활방범",
        "latitude": 36.49456336,
        "longitude": 127.2746199,
        "storage_days": 30,
        "manager_phone": "044-300-3912"
    },
    {
        "id": 250965,
        "sido": "세종",
        "sigungu": "한누리대로",
        "eupmyeondong": "2129",
        "address": "세종특별자치시 한누리대로 2129 (보람동)",
        "purpose": "생활방범",
        "latitude": 36.479006,
        "longitude": 127.290117,
        "storage_days": 30,
        "manager_phone": "044-300-2845"
    },
    {
        "id": 250966,
        "sido": "세종",
        "sigungu": "남세종로",
        "eupmyeondong": "450(보람동)",
        "address": "세종특별자치시 남세종로 450(보람동)",
        "purpose": "생활방범",
        "latitude": 36.477554,
        "longitude": 127.290961,
        "storage_days": 30,
        "manager_phone": "044-300-2846"
    },
    {
        "id": 250967,
        "sido": "세종",
        "sigungu": "시청대로",
        "eupmyeondong": "106",
        "address": "세종특별자치시 시청대로 106 (보람동)",
        "purpose": "생활방범",
        "latitude": 36.477969,
        "longitude": 127.283067,
        "storage_days": 30,
        "manager_phone": "044-300-2847"
    },
    {
        "id": 250968,
        "sido": "세종",
        "sigungu": "보람동664-101",
        "eupmyeondong": "",
        "address": "세종특별자치시 보람동664-101",
        "purpose": "생활방범",
        "latitude": 36.474981,
        "longitude": 127.284878,
        "storage_days": 30,
        "manager_phone": "044-300-2848"
    },
    {
        "id": 250969,
        "sido": "세종",
        "sigungu": "보람동674",
        "eupmyeondong": "",
        "address": "세종특별자치시 보람동674",
        "purpose": "생활방범",
        "latitude": 36.478597,
        "longitude": 127.293391,
        "storage_days": 30,
        "manager_phone": "044-300-2849"
    },
    {
        "id": 250970,
        "sido": "세종",
        "sigungu": "보람동684-1",
        "eupmyeondong": "",
        "address": "세종특별자치시 보람동684-1",
        "purpose": "생활방범",
        "latitude": 36.477096,
        "longitude": 127.29618,
        "storage_days": 30,
        "manager_phone": "044-300-2850"
    },
    {
        "id": 250971,
        "sido": "세종",
        "sigungu": "보람동617-5",
        "eupmyeondong": "",
        "address": "세종특별자치시 보람동617-5",
        "purpose": "생활방범",
        "latitude": 36.48421,
        "longitude": 127.294609,
        "storage_days": 30,
        "manager_phone": "044-300-2851"
    },
    {
        "id": 250972,
        "sido": "세종",
        "sigungu": "보람동620-4",
        "eupmyeondong": "",
        "address": "세종특별자치시 보람동620-4",
        "purpose": "생활방범",
        "latitude": 36.482093,
        "longitude": 127.296431,
        "storage_days": 30,
        "manager_phone": "044-300-2852"
    },
    {
        "id": 250973,
        "sido": "세종",
        "sigungu": "보람동540-2",
        "eupmyeondong": "",
        "address": "세종특별자치시 보람동540-2",
        "purpose": "생활방범",
        "latitude": 36.480202,
        "longitude": 127.297884,
        "storage_days": 30,
        "manager_phone": "044-300-2853"
    },
    {
        "id": 250974,
        "sido": "세종",
        "sigungu": "보람동664-66",
        "eupmyeondong": "",
        "address": "세종특별자치시 보람동664-66",
        "purpose": "생활방범",
        "latitude": 36.476061,
        "longitude": 127.27801,
        "storage_days": 30,
        "manager_phone": "044-300-2854"
    },
    {
        "id": 250975,
        "sido": "세종",
        "sigungu": "보람동624-1",
        "eupmyeondong": "",
        "address": "세종특별자치시 보람동624-1",
        "purpose": "생활방범",
        "latitude": 36.48175,
        "longitude": 127.291191,
        "storage_days": 30,
        "manager_phone": "044-300-2855"
    },
    {
        "id": 250976,
        "sido": "세종",
        "sigungu": "보람동625-4",
        "eupmyeondong": "",
        "address": "세종특별자치시 보람동625-4",
        "purpose": "생활방범",
        "latitude": 36.481327,
        "longitude": 127.290786,
        "storage_days": 30,
        "manager_phone": "044-300-2856"
    },
    {
        "id": 250977,
        "sido": "세종",
        "sigungu": "보람동665-1",
        "eupmyeondong": "",
        "address": "세종특별자치시 보람동665-1",
        "purpose": "생활방범",
        "latitude": 36.479819,
        "longitude": 127.291118,
        "storage_days": 30,
        "manager_phone": "044-300-2857"
    },
    {
        "id": 250978,
        "sido": "세종",
        "sigungu": "보람동664-83",
        "eupmyeondong": "",
        "address": "세종특별자치시 보람동664-83",
        "purpose": "생활방범",
        "latitude": 36.473092,
        "longitude": 127.284603,
        "storage_days": 30,
        "manager_phone": "044-300-2858"
    },
    {
        "id": 250979,
        "sido": "세종",
        "sigungu": "시목부강로",
        "eupmyeondong": "711",
        "address": "세종특별자치시 시목부강로 711",
        "purpose": "차량방범",
        "latitude": 36.527346,
        "longitude": 127.373632,
        "storage_days": 30,
        "manager_phone": "044-300-2859"
    },
    {
        "id": 250980,
        "sido": "세종",
        "sigungu": "부강면",
        "eupmyeondong": "부강리",
        "address": "세종특별자치시 부강면 부강리 401-164",
        "purpose": "생활방범",
        "latitude": 36.532647,
        "longitude": 127.36756,
        "storage_days": 30,
        "manager_phone": "044-300-2860"
    },
    {
        "id": 250981,
        "sido": "세종",
        "sigungu": "부강면",
        "eupmyeondong": "부강리",
        "address": "세종특별자치시 부강면 부강리 377-3",
        "purpose": "생활방범",
        "latitude": 36.5348102,
        "longitude": 127.3640474,
        "storage_days": 30,
        "manager_phone": "044-300-2861"
    },
    {
        "id": 250982,
        "sido": "세종",
        "sigungu": "부강면",
        "eupmyeondong": "부강리",
        "address": "세종특별자치시 부강면 부강리 486-1",
        "purpose": "생활방범",
        "latitude": 36.527925,
        "longitude": 127.368213,
        "storage_days": 30,
        "manager_phone": "044-300-2862"
    },
    {
        "id": 250983,
        "sido": "세종",
        "sigungu": "부강면",
        "eupmyeondong": "노호등곡1로",
        "address": "세종특별자치시 부강면 노호등곡1로 1",
        "purpose": "생활방범",
        "latitude": 36.49808,
        "longitude": 127.392653,
        "storage_days": 30,
        "manager_phone": "044-300-2863"
    },
    {
        "id": 250984,
        "sido": "세종",
        "sigungu": "부강면",
        "eupmyeondong": "부강리",
        "address": "세종특별자치시 부강면 부강리 377-3",
        "purpose": "생활방범",
        "latitude": 36.5543859,
        "longitude": 127.3609833,
        "storage_days": 30,
        "manager_phone": "044-300-2864"
    },
    {
        "id": 250985,
        "sido": "세종",
        "sigungu": "부강면",
        "eupmyeondong": "등곡길",
        "address": "세종특별자치시 부강면 등곡길 13",
        "purpose": "생활방범",
        "latitude": 36.512318,
        "longitude": 127.381853,
        "storage_days": 30,
        "manager_phone": "044-300-2865"
    },
    {
        "id": 250986,
        "sido": "세종",
        "sigungu": "부강면",
        "eupmyeondong": "부강3길",
        "address": "세종특별자치시 부강면 부강3길 20-17",
        "purpose": "생활방범",
        "latitude": 36.530812,
        "longitude": 127.3677866,
        "storage_days": 30,
        "manager_phone": "044-300-2866"
    },
    {
        "id": 250987,
        "sido": "세종",
        "sigungu": "부강면",
        "eupmyeondong": "문곡리",
        "address": "세종특별자치시 부강면 문곡리 922-5",
        "purpose": "생활방범",
        "latitude": 36.5279698,
        "longitude": 127.3835694,
        "storage_days": 30,
        "manager_phone": "044-300-2867"
    },
    {
        "id": 250988,
        "sido": "세종",
        "sigungu": "부강면",
        "eupmyeondong": "청연로",
        "address": "세종특별자치시 부강면 청연로 90",
        "purpose": "생활방범",
        "latitude": 36.531907,
        "longitude": 127.365197,
        "storage_days": 30,
        "manager_phone": "044-300-2868"
    },
    {
        "id": 250989,
        "sido": "세종",
        "sigungu": "부강면",
        "eupmyeondong": "부강신대길",
        "address": "세종특별자치시 부강면 부강신대길 63-3",
        "purpose": "생활방범",
        "latitude": 36.532954,
        "longitude": 127.360503,
        "storage_days": 30,
        "manager_phone": "044-300-2869"
    },
    {
        "id": 250990,
        "sido": "세종",
        "sigungu": "보람동",
        "eupmyeondong": "714",
        "address": "세종특별자치시 보람동 714",
        "purpose": "생활방범",
        "latitude": 36.48346646,
        "longitude": 127.2950304,
        "storage_days": 30,
        "manager_phone": "044-300-3966"
    },
    {
        "id": 250991,
        "sido": "세종",
        "sigungu": "보람동",
        "eupmyeondong": "776",
        "address": "세종특별자치시 보람동 776",
        "purpose": "생활방범",
        "latitude": 36.48077882,
        "longitude": 127.2977249,
        "storage_days": 30,
        "manager_phone": "044-300-3967"
    },
    {
        "id": 250992,
        "sido": "세종",
        "sigungu": "소담동",
        "eupmyeondong": "591",
        "address": "세종특별자치시 소담동 591",
        "purpose": "생활방범",
        "latitude": 36.48379379,
        "longitude": 127.3019714,
        "storage_days": 30,
        "manager_phone": "044-300-3968"
    },
    {
        "id": 250993,
        "sido": "세종",
        "sigungu": "소담동",
        "eupmyeondong": "532",
        "address": "세종특별자치시 소담동 532",
        "purpose": "생활방범",
        "latitude": 36.48776795,
        "longitude": 127.2997158,
        "storage_days": 30,
        "manager_phone": "044-300-3969"
    },
    {
        "id": 250994,
        "sido": "세종",
        "sigungu": "소담동",
        "eupmyeondong": "538",
        "address": "세종특별자치시 소담동 538",
        "purpose": "생활방범",
        "latitude": 36.4863941,
        "longitude": 127.2986503,
        "storage_days": 30,
        "manager_phone": "044-300-3970"
    },
    {
        "id": 250995,
        "sido": "세종",
        "sigungu": "반곡로",
        "eupmyeondong": "76",
        "address": "세종특별자치시 반곡로 76",
        "purpose": "생활방범",
        "latitude": 36.49834149,
        "longitude": 127.3151664,
        "storage_days": 30,
        "manager_phone": "044-300-3971"
    },
    {
        "id": 250996,
        "sido": "세종",
        "sigungu": "반곡동",
        "eupmyeondong": "49-6",
        "address": "세종특별자치시 반곡동 49-6",
        "purpose": "생활방범",
        "latitude": 36.4991579,
        "longitude": 127.3109757,
        "storage_days": 30,
        "manager_phone": "044-300-3972"
    },
    {
        "id": 250997,
        "sido": "세종",
        "sigungu": "산울동",
        "eupmyeondong": "312",
        "address": "세종특별자치시 산울동 312",
        "purpose": "생활방범",
        "latitude": 36.52903058,
        "longitude": 127.2644956,
        "storage_days": 30,
        "manager_phone": "044-300-3973"
    },
    {
        "id": 250998,
        "sido": "세종",
        "sigungu": "산울동",
        "eupmyeondong": "256-3",
        "address": "세종특별자치시 산울동 256-3",
        "purpose": "생활방범",
        "latitude": 36.52659106,
        "longitude": 127.2607593,
        "storage_days": 30,
        "manager_phone": "044-300-3974"
    },
    {
        "id": 250999,
        "sido": "세종",
        "sigungu": "고운동",
        "eupmyeondong": "장기로",
        "address": "세종특별자치시 고운동 장기로 910 (고운동)",
        "purpose": "생활방범",
        "latitude": 36.50020793,
        "longitude": 127.2359329,
        "storage_days": 30,
        "manager_phone": "044-300-2517"
    },
    {
        "id": 251000,
        "sido": "세종",
        "sigungu": "고운동",
        "eupmyeondong": "세종로",
        "address": "세종특별자치시 고운동 세종로 1260 (고운동)",
        "purpose": "생활방범",
        "latitude": 36.51536175,
        "longitude": 127.2418714,
        "storage_days": 30,
        "manager_phone": "044-300-2518"
    },
    {
        "id": 251001,
        "sido": "세종",
        "sigungu": "고운동",
        "eupmyeondong": "마음로",
        "address": "세종특별자치시 고운동 마음로 290 (고운동)",
        "purpose": "생활방범",
        "latitude": 36.52019009,
        "longitude": 127.2373652,
        "storage_days": 30,
        "manager_phone": "044-300-2519"
    },
    {
        "id": 251002,
        "sido": "세종",
        "sigungu": "고운동",
        "eupmyeondong": "마음로",
        "address": "세종특별자치시 고운동 마음로 165 (고운동)",
        "purpose": "생활방범",
        "latitude": 36.51237403,
        "longitude": 127.2296298,
        "storage_days": 30,
        "manager_phone": "044-300-2520"
    },
    {
        "id": 251003,
        "sido": "세종",
        "sigungu": "고운동",
        "eupmyeondong": "마음안1로",
        "address": "세종특별자치시 고운동 마음안1로 30 (고운동)",
        "purpose": "생활방범",
        "latitude": 36.51237403,
        "longitude": 127.2296298,
        "storage_days": 30,
        "manager_phone": "044-300-2521"
    },
    {
        "id": 251004,
        "sido": "세종",
        "sigungu": "고운동",
        "eupmyeondong": "만남로",
        "address": "세종특별자치시 고운동 만남로 25 (고운동)",
        "purpose": "생활방범",
        "latitude": 36.50199953,
        "longitude": 127.2362065,
        "storage_days": 30,
        "manager_phone": "044-300-2522"
    },
    {
        "id": 251005,
        "sido": "세종",
        "sigungu": "고운동",
        "eupmyeondong": "마음로",
        "address": "세종특별자치시 고운동 마음로 40 (고운동)",
        "purpose": "생활방범",
        "latitude": 36.5033123,
        "longitude": 127.2367269,
        "storage_days": 30,
        "manager_phone": "044-300-2523"
    },
    {
        "id": 251006,
        "sido": "세종",
        "sigungu": "고운동",
        "eupmyeondong": "마음로",
        "address": "세종특별자치시 고운동 마음로 20 (고운동)",
        "purpose": "생활방범",
        "latitude": 36.50247411,
        "longitude": 127.2384435,
        "storage_days": 30,
        "manager_phone": "044-300-2524"
    },
    {
        "id": 251007,
        "sido": "세종",
        "sigungu": "고운동",
        "eupmyeondong": "세종로",
        "address": "세종특별자치시 고운동 세종로 1090 (고운동)",
        "purpose": "생활방범",
        "latitude": 36.49999894,
        "longitude": 127.2402567,
        "storage_days": 30,
        "manager_phone": "044-300-2525"
    },
    {
        "id": 251008,
        "sido": "세종",
        "sigungu": "만남로1길",
        "eupmyeondong": "30",
        "address": "세종특별자치시  만남로1길 30 (고운동)",
        "purpose": "생활방범",
        "latitude": 36.5018273,
        "longitude": 127.2335351,
        "storage_days": 30,
        "manager_phone": "044-300-2526"
    },
    {
        "id": 251009,
        "sido": "세종",
        "sigungu": "만남로",
        "eupmyeondong": "15",
        "address": "세종특별자치시  만남로 15 (고운동)",
        "purpose": "생활방범",
        "latitude": 36.50087431,
        "longitude": 127.2363943,
        "storage_days": 30,
        "manager_phone": "044-300-2527"
    },
    {
        "id": 251010,
        "sido": "세종",
        "sigungu": "고운동",
        "eupmyeondong": "장기로",
        "address": "세종특별자치시 고운동 장기로 910 (고운동)",
        "purpose": "생활방범",
        "latitude": 36.50002481,
        "longitude": 127.2342217,
        "storage_days": 30,
        "manager_phone": "044-300-2528"
    },
    {
        "id": 251011,
        "sido": "세종",
        "sigungu": "고운동",
        "eupmyeondong": "마음안로",
        "address": "세종특별자치시 고운동 마음안로 15 (고운동)",
        "purpose": "생활방범",
        "latitude": 36.51539636,
        "longitude": 127.2336745,
        "storage_days": 30,
        "manager_phone": "044-300-2529"
    },
    {
        "id": 251012,
        "sido": "세종",
        "sigungu": "마음안로",
        "eupmyeondong": "13",
        "address": "세종특별자치시 마음안로 13 (고운동, 가락마을7단지)",
        "purpose": "생활방범",
        "latitude": 36.51329238,
        "longitude": 127.2333205,
        "storage_days": 30,
        "manager_phone": "044-300-2530"
    },
    {
        "id": 251013,
        "sido": "세종",
        "sigungu": "고운동",
        "eupmyeondong": "마음로",
        "address": "세종특별자치시 고운동 마음로 10 (고운동)",
        "purpose": "생활방범",
        "latitude": 36.50601145,
        "longitude": 127.2319329,
        "storage_days": 30,
        "manager_phone": "044-300-2531"
    },
    {
        "id": 251014,
        "sido": "세종",
        "sigungu": "고운동",
        "eupmyeondong": "만남1로",
        "address": "세종특별자치시 고운동 만남1로 10 (고운동)",
        "purpose": "생활방범",
        "latitude": 36.5018273,
        "longitude": 127.2327382,
        "storage_days": 30,
        "manager_phone": "044-300-2532"
    },
    {
        "id": 251015,
        "sido": "세종",
        "sigungu": "고운동",
        "eupmyeondong": "만남1로",
        "address": "세종특별자치시 고운동 만남1로 60 (고운동)",
        "purpose": "생활방범",
        "latitude": 36.50497508,
        "longitude": 127.2326285,
        "storage_days": 30,
        "manager_phone": "044-300-2533"
    },
    {
        "id": 251016,
        "sido": "세종",
        "sigungu": "고운동",
        "eupmyeondong": "마음로",
        "address": "세종특별자치시 고운동 마음로 55 (고운동)",
        "purpose": "생활방범",
        "latitude": 36.5079108,
        "longitude": 127.2295868,
        "storage_days": 30,
        "manager_phone": "044-300-2534"
    },
    {
        "id": 251017,
        "sido": "세종",
        "sigungu": "고운동",
        "eupmyeondong": "마음안2로",
        "address": "세종특별자치시 고운동 마음안2로 20 (고운동)",
        "purpose": "생활방범",
        "latitude": 36.51735369,
        "longitude": 127.2329021,
        "storage_days": 30,
        "manager_phone": "044-300-2535"
    },
    {
        "id": 251018,
        "sido": "세종",
        "sigungu": "만남로",
        "eupmyeondong": "151",
        "address": "세종특별자치시 만남로 151 (고운동)",
        "purpose": "생활방범",
        "latitude": 36.51222,
        "longitude": 127.238,
        "storage_days": 30,
        "manager_phone": "044-300-2536"
    },
    {
        "id": 251019,
        "sido": "세종",
        "sigungu": "고운동",
        "eupmyeondong": "1383",
        "address": "세종특별자치시 고운동 1383",
        "purpose": "생활방범",
        "latitude": 36.51892,
        "longitude": 127.23793,
        "storage_days": 30,
        "manager_phone": "044-300-2537"
    },
    {
        "id": 251020,
        "sido": "세종",
        "sigungu": "만남로",
        "eupmyeondong": "14",
        "address": "세종특별자치시 만남로 14 (고운동)",
        "purpose": "생활방범",
        "latitude": 36.51212,
        "longitude": 127.2392957,
        "storage_days": 30,
        "manager_phone": "044-300-2538"
    },
    {
        "id": 251021,
        "sido": "세종",
        "sigungu": "마음로",
        "eupmyeondong": "208",
        "address": "세종특별자치시 마음로 208",
        "purpose": "생활방범",
        "latitude": 36.514803,
        "longitude": 127.231414,
        "storage_days": 30,
        "manager_phone": "044-300-2539"
    },
    {
        "id": 251022,
        "sido": "세종",
        "sigungu": "만남로",
        "eupmyeondong": "170",
        "address": "세종특별자치시 만남로 170",
        "purpose": "생활방범",
        "latitude": 36.513847,
        "longitude": 127.239684,
        "storage_days": 30,
        "manager_phone": "044-300-2540"
    },
    {
        "id": 251023,
        "sido": "세종",
        "sigungu": "고운동",
        "eupmyeondong": "986",
        "address": "세종특별자치시 고운동 986",
        "purpose": "생활방범",
        "latitude": 36.519622,
        "longitude": 127.232223,
        "storage_days": 30,
        "manager_phone": "044-300-2541"
    },
    {
        "id": 251024,
        "sido": "세종",
        "sigungu": "고운동",
        "eupmyeondong": "1088",
        "address": "세종특별자치시 고운동 1088",
        "purpose": "생활방범",
        "latitude": 36.516682,
        "longitude": 127.229404,
        "storage_days": 30,
        "manager_phone": "044-300-2542"
    },
    {
        "id": 251025,
        "sido": "세종",
        "sigungu": "고운동",
        "eupmyeondong": "1193",
        "address": "세종특별자치시 고운동 1193",
        "purpose": "생활방범",
        "latitude": 36.517929,
        "longitude": 127.233936,
        "storage_days": 30,
        "manager_phone": "044-300-2543"
    },
    {
        "id": 251026,
        "sido": "세종",
        "sigungu": "고운동",
        "eupmyeondong": "1365",
        "address": "세종특별자치시 고운동 1365",
        "purpose": "생활방범",
        "latitude": 36.516152,
        "longitude": 127.230868,
        "storage_days": 30,
        "manager_phone": "044-300-2544"
    },
    {
        "id": 251027,
        "sido": "세종",
        "sigungu": "집현동",
        "eupmyeondong": "883-2",
        "address": "세종특별자치시 집현동 883-2",
        "purpose": "생활방범",
        "latitude": 36.49356,
        "longitude": 127.320704,
        "storage_days": 30,
        "manager_phone": "044-300-3688"
    },
    {
        "id": 251028,
        "sido": "세종",
        "sigungu": "집현동",
        "eupmyeondong": "785-57",
        "address": "세종특별자치시 집현동 785-57",
        "purpose": "생활방범",
        "latitude": 36.493192,
        "longitude": 127.3225,
        "storage_days": 30,
        "manager_phone": "044-300-3689"
    },
    {
        "id": 251029,
        "sido": "세종",
        "sigungu": "집현동",
        "eupmyeondong": "883-72",
        "address": "세종특별자치시 집현동 883-72",
        "purpose": "생활방범",
        "latitude": 36.490418,
        "longitude": 127.321443,
        "storage_days": 30,
        "manager_phone": "044-300-3690"
    },
    {
        "id": 251030,
        "sido": "세종",
        "sigungu": "집현동",
        "eupmyeondong": "883-42",
        "address": "세종특별자치시 집현동 883-42",
        "purpose": "생활방범",
        "latitude": 36.490091,
        "longitude": 127.322921,
        "storage_days": 30,
        "manager_phone": "044-300-3691"
    },
    {
        "id": 251031,
        "sido": "세종",
        "sigungu": "집현동",
        "eupmyeondong": "785-94",
        "address": "세종특별자치시 집현동 785-94",
        "purpose": "생활방범",
        "latitude": 36.489545,
        "longitude": 127.323831,
        "storage_days": 30,
        "manager_phone": "044-300-3692"
    },
    {
        "id": 251032,
        "sido": "세종",
        "sigungu": "집현동",
        "eupmyeondong": "883-148",
        "address": "세종특별자치시 집현동 883-148",
        "purpose": "생활방범",
        "latitude": 36.485241,
        "longitude": 127.320271,
        "storage_days": 30,
        "manager_phone": "044-300-3693"
    },
    {
        "id": 251033,
        "sido": "세종",
        "sigungu": "집현동",
        "eupmyeondong": "883-206",
        "address": "세종특별자치시 집현동 883-206",
        "purpose": "생활방범",
        "latitude": 36.484118,
        "longitude": 127.321907,
        "storage_days": 30,
        "manager_phone": "044-300-3694"
    },
    {
        "id": 251034,
        "sido": "세종",
        "sigungu": "집현동",
        "eupmyeondong": "883-161",
        "address": "세종특별자치시 집현동 883-161",
        "purpose": "생활방범",
        "latitude": 36.484703,
        "longitude": 127.321145,
        "storage_days": 30,
        "manager_phone": "044-300-3695"
    },
    {
        "id": 251035,
        "sido": "세종",
        "sigungu": "집현동",
        "eupmyeondong": "996-4",
        "address": "세종특별자치시 집현동 996-4",
        "purpose": "생활방범",
        "latitude": 36.498143,
        "longitude": 127.325175,
        "storage_days": 30,
        "manager_phone": "044-300-3696"
    },
    {
        "id": 251036,
        "sido": "세종",
        "sigungu": "집현동",
        "eupmyeondong": "885-1",
        "address": "세종특별자치시 집현동 885-1",
        "purpose": "생활방범",
        "latitude": 36.497842,
        "longitude": 127.322554,
        "storage_days": 30,
        "manager_phone": "044-300-3697"
    },
    {
        "id": 251037,
        "sido": "세종",
        "sigungu": "집현동",
        "eupmyeondong": "885-1",
        "address": "세종특별자치시 집현동 885-1",
        "purpose": "생활방범",
        "latitude": 36.497324,
        "longitude": 127.322218,
        "storage_days": 30,
        "manager_phone": "044-300-3698"
    },
    {
        "id": 251038,
        "sido": "세종",
        "sigungu": "반곡동",
        "eupmyeondong": "13-79",
        "address": "세종특별자치시 반곡동 13-79",
        "purpose": "생활방범",
        "latitude": 36.497901,
        "longitude": 127.320371,
        "storage_days": 30,
        "manager_phone": "044-300-3699"
    },
    {
        "id": 251039,
        "sido": "세종",
        "sigungu": "집현동",
        "eupmyeondong": "885-1",
        "address": "세종특별자치시 집현동 885-1",
        "purpose": "생활방범",
        "latitude": 36.496103,
        "longitude": 127.321515,
        "storage_days": 30,
        "manager_phone": "044-300-3700"
    },
    {
        "id": 251040,
        "sido": "세종",
        "sigungu": "집현동",
        "eupmyeondong": "927",
        "address": "세종특별자치시 집현동 927",
        "purpose": "생활방범",
        "latitude": 36.495438,
        "longitude": 127.322749,
        "storage_days": 30,
        "manager_phone": "044-300-3701"
    },
    {
        "id": 251041,
        "sido": "세종",
        "sigungu": "집현동",
        "eupmyeondong": "884",
        "address": "세종특별자치시 집현동 884",
        "purpose": "생활방범",
        "latitude": 36.496255,
        "longitude": 127.322646,
        "storage_days": 30,
        "manager_phone": "044-300-3702"
    },
    {
        "id": 251042,
        "sido": "세종",
        "sigungu": "집현동",
        "eupmyeondong": "785-33",
        "address": "세종특별자치시 집현동 785-33",
        "purpose": "생활방범",
        "latitude": 36.494812,
        "longitude": 127.322473,
        "storage_days": 30,
        "manager_phone": "044-300-3703"
    },
    {
        "id": 251043,
        "sido": "세종",
        "sigungu": "집현동",
        "eupmyeondong": "926-1",
        "address": "세종특별자치시 집현동 926-1",
        "purpose": "생활방범",
        "latitude": 36.494464,
        "longitude": 127.320835,
        "storage_days": 30,
        "manager_phone": "044-300-3704"
    },
    {
        "id": 251044,
        "sido": "세종",
        "sigungu": "집현동",
        "eupmyeondong": "883-56",
        "address": "세종특별자치시 집현동 883-56",
        "purpose": "생활방범",
        "latitude": 36.49108,
        "longitude": 127.321778,
        "storage_days": 30,
        "manager_phone": "044-300-3705"
    },
    {
        "id": 251045,
        "sido": "세종",
        "sigungu": "집현동",
        "eupmyeondong": "883-26",
        "address": "세종특별자치시 집현동 883-26",
        "purpose": "생활방범",
        "latitude": 36.491579,
        "longitude": 127.321707,
        "storage_days": 30,
        "manager_phone": "044-300-3706"
    },
    {
        "id": 251046,
        "sido": "세종",
        "sigungu": "집현동",
        "eupmyeondong": "883-101",
        "address": "세종특별자치시 집현동 883-101",
        "purpose": "생활방범",
        "latitude": 36.488931,
        "longitude": 127.321313,
        "storage_days": 30,
        "manager_phone": "044-300-3707"
    },
    {
        "id": 251047,
        "sido": "세종",
        "sigungu": "집현동",
        "eupmyeondong": "883-86",
        "address": "세종특별자치시 집현동 883-86",
        "purpose": "생활방범",
        "latitude": 36.488071,
        "longitude": 127.322716,
        "storage_days": 30,
        "manager_phone": "044-300-3708"
    },
    {
        "id": 251048,
        "sido": "세종",
        "sigungu": "집현동",
        "eupmyeondong": "785-292",
        "address": "세종특별자치시 집현동 785-292",
        "purpose": "생활방범",
        "latitude": 36.484699,
        "longitude": 127.319424,
        "storage_days": 30,
        "manager_phone": "044-300-3709"
    },
    {
        "id": 251049,
        "sido": "세종",
        "sigungu": "집현동",
        "eupmyeondong": "785-350",
        "address": "세종특별자치시 집현동 785-350",
        "purpose": "생활방범",
        "latitude": 36.483993,
        "longitude": 127.317674,
        "storage_days": 30,
        "manager_phone": "044-300-3710"
    },
    {
        "id": 251050,
        "sido": "세종",
        "sigungu": "집현동",
        "eupmyeondong": "623-5",
        "address": "세종특별자치시 집현동 623-5",
        "purpose": "생활방범",
        "latitude": 36.499197,
        "longitude": 127.335069,
        "storage_days": 30,
        "manager_phone": "044-300-3711"
    },
    {
        "id": 251051,
        "sido": "세종",
        "sigungu": "집현동",
        "eupmyeondong": "산17-1",
        "address": "세종특별자치시 집현동 산17-1",
        "purpose": "생활방범",
        "latitude": 36.499628,
        "longitude": 127.337506,
        "storage_days": 30,
        "manager_phone": "044-300-3712"
    },
    {
        "id": 251052,
        "sido": "세종",
        "sigungu": "집현동",
        "eupmyeondong": "산",
        "address": "세종특별자치시 집현동 산 34",
        "purpose": "생활방범",
        "latitude": 36.498983,
        "longitude": 127.336956,
        "storage_days": 30,
        "manager_phone": "044-300-3713"
    },
    {
        "id": 251053,
        "sido": "세종",
        "sigungu": "집현동",
        "eupmyeondong": "1017-6",
        "address": "세종특별자치시 집현동 1017-6",
        "purpose": "생활방범",
        "latitude": 36.497546,
        "longitude": 127.333787,
        "storage_days": 30,
        "manager_phone": "044-300-3714"
    },
    {
        "id": 251054,
        "sido": "세종",
        "sigungu": "집현동",
        "eupmyeondong": "산",
        "address": "세종특별자치시 집현동 산 44",
        "purpose": "생활방범",
        "latitude": 36.496389,
        "longitude": 127.332257,
        "storage_days": 30,
        "manager_phone": "044-300-3715"
    },
    {
        "id": 251055,
        "sido": "세종",
        "sigungu": "집현동",
        "eupmyeondong": "산",
        "address": "세종특별자치시 집현동 산 132",
        "purpose": "생활방범",
        "latitude": 36.49442,
        "longitude": 127.3301,
        "storage_days": 30,
        "manager_phone": "044-300-3716"
    },
    {
        "id": 251056,
        "sido": "세종",
        "sigungu": "집현동",
        "eupmyeondong": "산",
        "address": "세종특별자치시 집현동 산 132",
        "purpose": "생활방범",
        "latitude": 36.493846,
        "longitude": 127.329116,
        "storage_days": 30,
        "manager_phone": "044-300-3717"
    },
    {
        "id": 251057,
        "sido": "세종",
        "sigungu": "집현동",
        "eupmyeondong": "785-181",
        "address": "세종특별자치시 집현동 785-181",
        "purpose": "생활방범",
        "latitude": 36.48886,
        "longitude": 127.32601,
        "storage_days": 30,
        "manager_phone": "044-300-3718"
    },
    {
        "id": 251058,
        "sido": "세종",
        "sigungu": "집현동",
        "eupmyeondong": "785-131",
        "address": "세종특별자치시 집현동 785-131",
        "purpose": "생활방범",
        "latitude": 36.491948,
        "longitude": 127.327754,
        "storage_days": 30,
        "manager_phone": "044-300-3719"
    },
    {
        "id": 251059,
        "sido": "세종",
        "sigungu": "집현동",
        "eupmyeondong": "785-228",
        "address": "세종특별자치시 집현동 785-228",
        "purpose": "생활방범",
        "latitude": 36.486275,
        "longitude": 127.324052,
        "storage_days": 30,
        "manager_phone": "044-300-3720"
    },
    {
        "id": 251060,
        "sido": "세종",
        "sigungu": "나성동",
        "eupmyeondong": "한누리대로",
        "address": "세종특별자치시 나성동 한누리대로 220",
        "purpose": "생활방범",
        "latitude": 36.48408,
        "longitude": 127.25982,
        "storage_days": 30,
        "manager_phone": "044-300-2648"
    },
    {
        "id": 251061,
        "sido": "세종",
        "sigungu": "나성동",
        "eupmyeondong": "한누리대로",
        "address": "세종특별자치시 나성동 한누리대로 24",
        "purpose": "생활방범",
        "latitude": 36.48616,
        "longitude": 127.25842,
        "storage_days": 30,
        "manager_phone": "044-300-2649"
    },
    {
        "id": 251062,
        "sido": "세종",
        "sigungu": "나성동",
        "eupmyeondong": "한누리대로",
        "address": "세종특별자치시 나성동 한누리대로 155",
        "purpose": "생활방범",
        "latitude": 36.47965,
        "longitude": 127.26325,
        "storage_days": 30,
        "manager_phone": "044-300-2650"
    },
    {
        "id": 251063,
        "sido": "세종",
        "sigungu": "나성동",
        "eupmyeondong": "한누리대로",
        "address": "세종특별자치시 나성동 한누리대로 260",
        "purpose": "생활방범",
        "latitude": 36.48769,
        "longitude": 127.25755,
        "storage_days": 30,
        "manager_phone": "044-300-2651"
    },
    {
        "id": 251064,
        "sido": "세종",
        "sigungu": "나성동",
        "eupmyeondong": "한누리대로",
        "address": "세종특별자치시 나성동 한누리대로 280",
        "purpose": "생활방범",
        "latitude": 36.48929,
        "longitude": 127.25699,
        "storage_days": 30,
        "manager_phone": "044-300-2652"
    },
    {
        "id": 251065,
        "sido": "세종",
        "sigungu": "나성동",
        "eupmyeondong": "33-2",
        "address": "세종특별자치시 나성동 33-2",
        "purpose": "생활방범",
        "latitude": 36.486406,
        "longitude": 127.26923,
        "storage_days": 30,
        "manager_phone": "044-300-2653"
    },
    {
        "id": 251066,
        "sido": "세종",
        "sigungu": "부강면",
        "eupmyeondong": "부강리",
        "address": "세종특별자치시 부강면 부강리 402-9",
        "purpose": "생활방범",
        "latitude": 36.531651,
        "longitude": 127.363198,
        "storage_days": 30,
        "manager_phone": "044-300-2870"
    },
    {
        "id": 251067,
        "sido": "세종",
        "sigungu": "부강면",
        "eupmyeondong": "부강외천로",
        "address": "세종특별자치시 부강면 부강외천로 6",
        "purpose": "생활방범",
        "latitude": 36.5263282,
        "longitude": 127.3684426,
        "storage_days": 30,
        "manager_phone": "044-300-2871"
    },
    {
        "id": 251068,
        "sido": "세종",
        "sigungu": "부강면",
        "eupmyeondong": "부강리",
        "address": "세종특별자치시 부강면 부강리 881-2",
        "purpose": "생활방범",
        "latitude": 36.528418,
        "longitude": 127.362154,
        "storage_days": 30,
        "manager_phone": "044-300-2872"
    },
    {
        "id": 251069,
        "sido": "세종",
        "sigungu": "부강면",
        "eupmyeondong": "퇴미로",
        "address": "세종특별자치시 부강면 퇴미로 23-6",
        "purpose": "생활방범",
        "latitude": 36.528645,
        "longitude": 127.360593,
        "storage_days": 30,
        "manager_phone": "044-300-2873"
    },
    {
        "id": 251070,
        "sido": "세종",
        "sigungu": "부강면",
        "eupmyeondong": "부강리",
        "address": "세종특별자치시 부강면 부강리 971",
        "purpose": "생활방범",
        "latitude": 36.529844,
        "longitude": 127.3624524,
        "storage_days": 30,
        "manager_phone": "044-300-2874"
    },
    {
        "id": 251071,
        "sido": "세종",
        "sigungu": "부강면",
        "eupmyeondong": "부강리",
        "address": "세종특별자치시 부강면 부강리 427-5",
        "purpose": "생활방범",
        "latitude": 36.529116,
        "longitude": 127.364349,
        "storage_days": 30,
        "manager_phone": "044-300-2875"
    },
    {
        "id": 251072,
        "sido": "세종",
        "sigungu": "부강면",
        "eupmyeondong": "부강리",
        "address": "세종특별자치시 부강면 부강리 883-4",
        "purpose": "생활방범",
        "latitude": 36.526134,
        "longitude": 127.361599,
        "storage_days": 30,
        "manager_phone": "044-300-2876"
    },
    {
        "id": 251073,
        "sido": "세종",
        "sigungu": "전동면",
        "eupmyeondong": "미곡리",
        "address": "세종특별자치시 전동면 미곡리 219-10",
        "purpose": "생활방범",
        "latitude": 36.6646026,
        "longitude": 127.2196095,
        "storage_days": 30,
        "manager_phone": "044-300-3367"
    },
    {
        "id": 251074,
        "sido": "세종",
        "sigungu": "전동면",
        "eupmyeondong": "석곡리",
        "address": "세종특별자치시 전동면 석곡리 361-6",
        "purpose": "생활방범",
        "latitude": 36.6587395,
        "longitude": 127.2560211,
        "storage_days": 30,
        "manager_phone": "044-300-3368"
    },
    {
        "id": 251075,
        "sido": "세종",
        "sigungu": "전동면",
        "eupmyeondong": "심중리",
        "address": "세종특별자치시 전동면 심중리 337-3",
        "purpose": "생활방범",
        "latitude": 36.649439,
        "longitude": 127.271417,
        "storage_days": 30,
        "manager_phone": "044-300-3369"
    },
    {
        "id": 251076,
        "sido": "세종",
        "sigungu": "전동면",
        "eupmyeondong": "하노장3길",
        "address": "세종특별자치시 전동면 하노장3길 9",
        "purpose": "생활방범",
        "latitude": 36.655847,
        "longitude": 127.266243,
        "storage_days": 30,
        "manager_phone": "044-300-3370"
    },
    {
        "id": 251077,
        "sido": "세종",
        "sigungu": "전동면",
        "eupmyeondong": "노장리",
        "address": "세종특별자치시 전동면 노장리 606-1",
        "purpose": "생활방범",
        "latitude": 36.655969,
        "longitude": 127.26887,
        "storage_days": 30,
        "manager_phone": "044-300-3371"
    },
    {
        "id": 251078,
        "sido": "세종",
        "sigungu": "전동면",
        "eupmyeondong": "보덕리205-11",
        "address": "세종특별자치시 전동면 보덕리205-11",
        "purpose": "생활방범",
        "latitude": 36.639656,
        "longitude": 127.268957,
        "storage_days": 30,
        "manager_phone": "044-300-3372"
    },
    {
        "id": 251079,
        "sido": "세종",
        "sigungu": "전동면",
        "eupmyeondong": "심중리",
        "address": "세종특별자치시 전동면 심중리 30-3",
        "purpose": "차량방범",
        "latitude": 36.673378,
        "longitude": 127.301571,
        "storage_days": 30,
        "manager_phone": "044-300-3373"
    },
    {
        "id": 251080,
        "sido": "세종",
        "sigungu": "전동면",
        "eupmyeondong": "봉대리",
        "address": "세종특별자치시 전동면 봉대리 108-2",
        "purpose": "차량방범",
        "latitude": 36.682746,
        "longitude": 127.26492,
        "storage_days": 30,
        "manager_phone": "044-300-3374"
    },
    {
        "id": 251081,
        "sido": "세종",
        "sigungu": "전동면",
        "eupmyeondong": "청송리",
        "address": "세종특별자치시 전동면 청송리 456-5",
        "purpose": "차량방범",
        "latitude": 36.665652,
        "longitude": 127.245703,
        "storage_days": 30,
        "manager_phone": "044-300-3375"
    },
    {
        "id": 251082,
        "sido": "세종",
        "sigungu": "전동면",
        "eupmyeondong": "보덕리",
        "address": "세종특별자치시 전동면 보덕리 386-6",
        "purpose": "차량방범",
        "latitude": 36.632537,
        "longitude": 127.273334,
        "storage_days": 30,
        "manager_phone": "044-300-3376"
    },
    {
        "id": 251083,
        "sido": "세종",
        "sigungu": "전동면",
        "eupmyeondong": "상노장길",
        "address": "세종특별자치시 전동면 상노장길 24-8",
        "purpose": "생활방범",
        "latitude": 36.670241,
        "longitude": 127.275002,
        "storage_days": 30,
        "manager_phone": "044-300-3377"
    },
    {
        "id": 251084,
        "sido": "세종",
        "sigungu": "전동면",
        "eupmyeondong": "청람리",
        "address": "세종특별자치시 전동면 청람리 64-1",
        "purpose": "생활방범",
        "latitude": 36.658303,
        "longitude": 127.233009,
        "storage_days": 30,
        "manager_phone": "044-300-3378"
    },
    {
        "id": 251085,
        "sido": "세종",
        "sigungu": "전동면",
        "eupmyeondong": "송정리",
        "address": "세종특별자치시 전동면 송정리 50-2",
        "purpose": "생활방범",
        "latitude": 36.62764,
        "longitude": 127.248406,
        "storage_days": 30,
        "manager_phone": "044-300-3379"
    },
    {
        "id": 251086,
        "sido": "세종",
        "sigungu": "전동면",
        "eupmyeondong": "송성리",
        "address": "세종특별자치시 전동면 송성리 50-1",
        "purpose": "생활방범",
        "latitude": 36.6625429,
        "longitude": 127.2141839,
        "storage_days": 30,
        "manager_phone": "044-300-3380"
    },
    {
        "id": 251087,
        "sido": "세종",
        "sigungu": "전동면",
        "eupmyeondong": "미곡리",
        "address": "세종특별자치시 전동면 미곡리 528",
        "purpose": "생활방범",
        "latitude": 36.68304265,
        "longitude": 127.2176956,
        "storage_days": 30,
        "manager_phone": "044-300-3381"
    },
    {
        "id": 251088,
        "sido": "세종",
        "sigungu": "전동면",
        "eupmyeondong": "하노장4길",
        "address": "세종특별자치시 전동면 하노장4길 9",
        "purpose": "생활방범",
        "latitude": 36.65562,
        "longitude": 127.265046,
        "storage_days": 30,
        "manager_phone": "044-300-3382"
    },
    {
        "id": 251089,
        "sido": "세종",
        "sigungu": "전동면",
        "eupmyeondong": "운주산로",
        "address": "세종특별자치시 전동면 운주산로 362",
        "purpose": "생활방범",
        "latitude": 36.653857,
        "longitude": 127.266346,
        "storage_days": 30,
        "manager_phone": "044-300-3383"
    },
    {
        "id": 251090,
        "sido": "세종",
        "sigungu": "전동면",
        "eupmyeondong": "송곡리",
        "address": "세종특별자치시 전동면 송곡리 178-1",
        "purpose": "생활방범",
        "latitude": 36.6306,
        "longitude": 127.2659,
        "storage_days": 30,
        "manager_phone": "044-300-3384"
    },
    {
        "id": 251091,
        "sido": "세종",
        "sigungu": "전동면",
        "eupmyeondong": "청송리",
        "address": "세종특별자치시 전동면 청송리 163-2",
        "purpose": "생활방범",
        "latitude": 36.664067,
        "longitude": 127.255361,
        "storage_days": 30,
        "manager_phone": "044-300-3385"
    },
    {
        "id": 251092,
        "sido": "세종",
        "sigungu": "하노장1길",
        "eupmyeondong": "12",
        "address": "세종특별자치시 하노장1길 12",
        "purpose": "생활방범",
        "latitude": 36.655078,
        "longitude": 127.26633,
        "storage_days": 30,
        "manager_phone": "044-300-3386"
    },
    {
        "id": 251093,
        "sido": "세종",
        "sigungu": "전동면",
        "eupmyeondong": "송정리",
        "address": "세종특별자치시 전동면 송정리 240-1",
        "purpose": "생활방범",
        "latitude": 36.626038,
        "longitude": 127.236248,
        "storage_days": 30,
        "manager_phone": "044-300-3387"
    },
    {
        "id": 251094,
        "sido": "세종",
        "sigungu": "전동면",
        "eupmyeondong": "송성리",
        "address": "세종특별자치시 전동면 송성리 368-3",
        "purpose": "생활방범",
        "latitude": 36.6495228,
        "longitude": 127.2137785,
        "storage_days": 30,
        "manager_phone": "044-300-3388"
    },
    {
        "id": 251095,
        "sido": "세종",
        "sigungu": "전의면",
        "eupmyeondong": "다방리",
        "address": "세종특별자치시 전의면 다방리 526",
        "purpose": "차량방범",
        "latitude": 36.603411,
        "longitude": 127.167741,
        "storage_days": 30,
        "manager_phone": "044-300-3389"
    },
    {
        "id": 251096,
        "sido": "세종",
        "sigungu": "전의면",
        "eupmyeondong": "관정리",
        "address": "세종특별자치시 전의면 관정리 154-1",
        "purpose": "차량방범",
        "latitude": 36.717517,
        "longitude": 127.211733,
        "storage_days": 30,
        "manager_phone": "044-300-3390"
    },
    {
        "id": 251097,
        "sido": "세종",
        "sigungu": "전의면",
        "eupmyeondong": "유천리",
        "address": "세종특별자치시 전의면 유천리 696-1 일원",
        "purpose": "차량방범",
        "latitude": 36.681604,
        "longitude": 127.169959,
        "storage_days": 30,
        "manager_phone": "044-300-3391"
    },
    {
        "id": 251098,
        "sido": "세종",
        "sigungu": "전의면",
        "eupmyeondong": "왕의물로",
        "address": "세종특별자치시 전의면 왕의물로 407",
        "purpose": "생활방범",
        "latitude": 36.71263,
        "longitude": 127.211386,
        "storage_days": 30,
        "manager_phone": "044-300-3392"
    },
    {
        "id": 251099,
        "sido": "세종",
        "sigungu": "전의면",
        "eupmyeondong": "장터길",
        "address": "세종특별자치시 전의면 장터길 33",
        "purpose": "생활방범",
        "latitude": 36.677986,
        "longitude": 127.206084,
        "storage_days": 30,
        "manager_phone": "044-300-3393"
    },
    {
        "id": 251100,
        "sido": "세종",
        "sigungu": "전의면",
        "eupmyeondong": "운주산로",
        "address": "세종특별자치시 전의면 운주산로 1204-9",
        "purpose": "생활방범",
        "latitude": 36.680928,
        "longitude": 127.203743,
        "storage_days": 30,
        "manager_phone": "044-300-3394"
    },
    {
        "id": 251101,
        "sido": "세종",
        "sigungu": "전의면",
        "eupmyeondong": "신정리507-3",
        "address": "세종특별자치시 전의면 신정리507-3",
        "purpose": "생활방범",
        "latitude": 36.690116,
        "longitude": 127.209528,
        "storage_days": 30,
        "manager_phone": "044-300-3395"
    },
    {
        "id": 251102,
        "sido": "세종",
        "sigungu": "전의면",
        "eupmyeondong": "달전리",
        "address": "세종특별자치시 전의면 달전리 381-8",
        "purpose": "생활방범",
        "latitude": 36.627062,
        "longitude": 127.174465,
        "storage_days": 30,
        "manager_phone": "044-300-3396"
    },
    {
        "id": 251103,
        "sido": "세종",
        "sigungu": "고운동",
        "eupmyeondong": "1623",
        "address": "세종특별자치시 고운동 1623",
        "purpose": "생활방범",
        "latitude": 36.508262,
        "longitude": 127.233252,
        "storage_days": 30,
        "manager_phone": "044-300-2545"
    },
    {
        "id": 251104,
        "sido": "세종",
        "sigungu": "고운동",
        "eupmyeondong": "1456",
        "address": "세종특별자치시 고운동 1456",
        "purpose": "생활방범",
        "latitude": 36.507003,
        "longitude": 127.231009,
        "storage_days": 30,
        "manager_phone": "044-300-2546"
    },
    {
        "id": 251105,
        "sido": "세종",
        "sigungu": "고운동",
        "eupmyeondong": "1987",
        "address": "세종특별자치시 고운동 1987",
        "purpose": "생활방범",
        "latitude": 36.50097,
        "longitude": 127.238773,
        "storage_days": 30,
        "manager_phone": "044-300-2547"
    },