[
    {
        "id": 60897,
        "sido": "울산",
        "sigungu": "중구",
        "eupmyeondong": "장현동산48-9_황방산삼거리",
        "address": "울산광역시 중구 장현동산48-9_황방산삼거리",
        "purpose": "방범용",
        "latitude": 35.58778,
        "longitude": 129.3273,
        "manager_phone": "052-290-4083",
        "police_linked": "Y",
        "bell_id": 1376
    },
    {
        "id": 60898,
        "sido": "울산",
        "sigungu": "중구",
        "eupmyeondong": "옥교10길14인근_사거리",
        "address": "울산광역시 중구 옥교10길14인근_사거리",
        "purpose": "방범용",
        "latitude": 35.55443,
        "longitude": 129.334,
        "manager_phone": "052-290-4083",
        "police_linked": "Y",
        "bell_id": 1375
    },
    {
        "id": 60899,
        "sido": "울산",
        "sigungu": "중구",
        "eupmyeondong": "학성로230_삼거리_대운슈퍼인근",
        "address": "울산광역시 중구 학성로230_삼거리_대운슈퍼인근",
        "purpose": "방범용",
        "latitude": 35.55641,
        "longitude": 129.3359,
        "manager_phone": "052-290-4083",
        "police_linked": "Y",
        "bell_id": 1377
    },
    {
        "id": 60900,
        "sido": "울산",
        "sigungu": "중구",
        "eupmyeondong": "난곡17길56_천전농장생오리인근_삼거리",
        "address": "울산광역시 중구 난곡17길56_천전농장생오리인근_삼거리",
        "purpose": "방범용",
        "latitude": 35.55672,
        "longitude": 129.2853,
        "manager_phone": "052-290-4083",
        "police_linked": "Y",
        "bell_id": 1338
    },
    {
        "id": 60901,
        "sido": "울산",
        "sigungu": "중구",
        "eupmyeondong": "신기12길38_진영동부아파트_상가인근_삼거리",
        "address": "울산광역시 중구 신기12길38_진영동부아파트_상가인근_삼거리",
        "purpose": "방범용",
        "latitude": 35.55268,
        "longitude": 129.2973,
        "manager_phone": "052-290-4083",
        "police_linked": "Y",
        "bell_id": 1339
    },
    {
        "id": 60902,
        "sido": "울산",
        "sigungu": "중구",
        "eupmyeondong": "해오름13길48_삼거리_개성뼈다귀",
        "address": "울산광역시 중구 해오름13길48_삼거리_개성뼈다귀",
        "purpose": "방범용",
        "latitude": 35.56363,
        "longitude": 129.3446,
        "manager_phone": "052-290-4083",
        "police_linked": "Y",
        "bell_id": 1156
    },
    {
        "id": 60903,
        "sido": "울산",
        "sigungu": "중구",
        "eupmyeondong": "염포로35_삼거리_제우스모텔인근",
        "address": "울산광역시 중구 염포로35_삼거리_제우스모텔인근",
        "purpose": "방범용",
        "latitude": 35.5607,
        "longitude": 129.3451,
        "manager_phone": "052-290-4083",
        "police_linked": "Y",
        "bell_id": 1157
    },
    {
        "id": 60904,
        "sido": "울산",
        "sigungu": "중구",
        "eupmyeondong": "명난로69_사거리_중앙고인근",
        "address": "울산광역시 중구 명난로69_사거리_중앙고인근",
        "purpose": "방범용",
        "latitude": 35.55604,
        "longitude": 129.2863,
        "manager_phone": "052-290-4083",
        "police_linked": "Y",
        "bell_id": 1440
    },
    {
        "id": 60905,
        "sido": "울산",
        "sigungu": "중구",
        "eupmyeondong": "향교1길13-2인근_삼거리_언덕길",
        "address": "울산광역시 중구 향교1길13-2인근_삼거리_언덕길",
        "purpose": "방범용",
        "latitude": 35.56125,
        "longitude": 129.316,
        "manager_phone": "052-290-4083",
        "police_linked": "Y",
        "bell_id": 1039
    },
    {
        "id": 60906,
        "sido": "울산",
        "sigungu": "중구",
        "eupmyeondong": "향교길27인근_사거리_신선연립",
        "address": "울산광역시 중구 향교길27인근_사거리_신선연립",
        "purpose": "방범용",
        "latitude": 35.562,
        "longitude": 129.3156,
        "manager_phone": "052-290-4083",
        "police_linked": "Y",
        "bell_id": 1038
    },
    {
        "id": 60907,
        "sido": "울산",
        "sigungu": "중구",
        "eupmyeondong": "성남동216_성남둔치공영주차장1",
        "address": "울산광역시 중구 성남동216_성남둔치공영주차장1",
        "purpose": "기타",
        "latitude": 35.55284,
        "longitude": 129.3179,
        "manager_phone": "052-290-4083",
        "police_linked": "Y",
        "bell_id": 7013
    },
    {
        "id": 60908,
        "sido": "울산",
        "sigungu": "중구",
        "eupmyeondong": "성남동216_성남둔치공영주차장2",
        "address": "울산광역시 중구 성남동216_성남둔치공영주차장2",
        "purpose": "기타",
        "latitude": 35.55264,
        "longitude": 129.3202,
        "manager_phone": "052-290-4083",
        "police_linked": "Y",
        "bell_id": 7014
    },
    {
        "id": 60909,
        "sido": "울산",
        "sigungu": "중구",
        "eupmyeondong": "옥교동72-3_강북공영주차장",
        "address": "울산광역시 중구 옥교동72-3_강북공영주차장",
        "purpose": "기타",
        "latitude": 35.55242,
        "longitude": 129.3228,
        "manager_phone": "052-290-4083",
        "police_linked": "Y",
        "bell_id": 7015
    },
    {
        "id": 60910,
        "sido": "울산",
        "sigungu": "중구",
        "eupmyeondong": "태화동910-14_건너편_태화둔치제2공영주차장",
        "address": "울산광역시 중구 태화동910-14_건너편_태화둔치제2공영주차장",
        "purpose": "기타",
        "latitude": 35.55365,
        "longitude": 129.2812,
        "manager_phone": "052-290-4083",
        "police_linked": "Y",
        "bell_id": 7016
    },
    {
        "id": 60911,
        "sido": "울산",
        "sigungu": "중구",
        "eupmyeondong": "태화동773-1_건너편_태화둔치제3공영주차장",
        "address": "울산광역시 중구 태화동773-1_건너편_태화둔치제3공영주차장",
        "purpose": "기타",
        "latitude": 35.55283,
        "longitude": 129.2837,
        "manager_phone": "052-290-4083",
        "police_linked": "Y",
        "bell_id": 7017
    },
    {
        "id": 60912,
        "sido": "울산",
        "sigungu": "중구",
        "eupmyeondong": "태화동776-1_건너편_태화둔치제4공영주차장",
        "address": "울산광역시 중구 태화동776-1_건너편_태화둔치제4공영주차장",
        "purpose": "기타",
        "latitude": 35.55233,
        "longitude": 129.285,
        "manager_phone": "052-290-4083",
        "police_linked": "Y",
        "bell_id": 7018
    },
    {
        "id": 60913,
        "sido": "울산",
        "sigungu": "중구",
        "eupmyeondong": "태화동726-12_건너편_태화둔치제5공영주차장",
        "address": "울산광역시 중구 태화동726-12_건너편_태화둔치제5공영주차장",
        "purpose": "기타",
        "latitude": 35.55055,
        "longitude": 129.2896,
        "manager_phone": "052-290-4083",
        "police_linked": "Y",
        "bell_id": 7019
    },
    {
        "id": 60914,
        "sido": "울산",
        "sigungu": "중구",
        "eupmyeondong": "동천강_징검다리앞",
        "address": "울산광역시 중구 동천강_징검다리앞",
        "purpose": "기타",
        "latitude": 35.56365,
        "longitude": 129.353,
        "manager_phone": "052-290-4083",
        "police_linked": "Y",
        "bell_id": 7008
    },
    {
        "id": 60915,
        "sido": "울산",
        "sigungu": "중구",
        "eupmyeondong": "반구동952_동천강",
        "address": "울산광역시 중구 반구동952_동천강",
        "purpose": "기타",
        "latitude": 35.55929,
        "longitude": 129.351,
        "manager_phone": "052-290-4083",
        "police_linked": "Y",
        "bell_id": 7003
    },
    {
        "id": 60916,
        "sido": "울산",
        "sigungu": "중구",
        "eupmyeondong": "다운동313-4_척과천",
        "address": "울산광역시 중구 다운동313-4_척과천",
        "purpose": "기타",
        "latitude": 35.5719,
        "longitude": 129.2667,
        "manager_phone": "052-290-4083",
        "police_linked": "Y",
        "bell_id": 7004
    },
    {
        "id": 60917,
        "sido": "울산",
        "sigungu": "중구",
        "eupmyeondong": "다운아파트뒤_척과천",
        "address": "울산광역시 중구 다운아파트뒤_척과천",
        "purpose": "기타",
        "latitude": 35.56553,
        "longitude": 129.2697,
        "manager_phone": "052-290-4083",
        "police_linked": "Y",
        "bell_id": 7005
    },
    {
        "id": 60918,
        "sido": "울산",
        "sigungu": "중구",
        "eupmyeondong": "다운초뒤_태화강",
        "address": "울산광역시 중구 다운초뒤_태화강",
        "purpose": "기타",
        "latitude": 35.55919,
        "longitude": 129.2658,
        "manager_phone": "052-290-4083",
        "police_linked": "Y",
        "bell_id": 7006
    },
    {
        "id": 60919,
        "sido": "울산",
        "sigungu": "중구",
        "eupmyeondong": "성안동247_문화의전당앞주차장",
        "address": "울산광역시 중구 성안동247_문화의전당앞주차장",
        "purpose": "기타",
        "latitude": 35.56672,
        "longitude": 129.3215,
        "manager_phone": "052-290-4083",
        "police_linked": "Y",
        "bell_id": 7002
    },
    {
        "id": 60920,
        "sido": "울산",
        "sigungu": "중구",
        "eupmyeondong": "유곡동457_유곡저류지",
        "address": "울산광역시 중구 유곡동457_유곡저류지",
        "purpose": "기타",
        "latitude": 35.56335,
        "longitude": 129.2954,
        "manager_phone": "052-290-4083",
        "police_linked": "Y",
        "bell_id": 7007
    },
    {
        "id": 60921,
        "sido": "울산",
        "sigungu": "중구",
        "eupmyeondong": "혁신도시_내_약사천저류지_상류",
        "address": "울산광역시 중구 혁신도시_내_약사천저류지_상류",
        "purpose": "기타",
        "latitude": 35.57746,
        "longitude": 129.336,
        "manager_phone": "052-290-4083",
        "police_linked": "Y",
        "bell_id": 7001
    },
    {
        "id": 60922,
        "sido": "울산",
        "sigungu": "중구",
        "eupmyeondong": "평동길25_태화초정문내_불법주정차",
        "address": "울산광역시 중구 평동길25_태화초정문내_불법주정차",
        "purpose": "기타",
        "latitude": 35.558,
        "longitude": 129.3062,
        "manager_phone": "052-290-4083",
        "police_linked": "Y",
        "bell_id": 6003
    },
    {
        "id": 60923,
        "sido": "울산",
        "sigungu": "중구",
        "eupmyeondong": "명난로124_명정초_그림쟁이미술학원앞_불법주정차",
        "address": "울산광역시 중구 명난로124_명정초_그림쟁이미술학원앞_불법주정차",
        "purpose": "기타",
        "latitude": 35.55211,
        "longitude": 129.2885,
        "manager_phone": "052-290-4083",
        "police_linked": "Y",
        "bell_id": 6001
    },
    {
        "id": 60924,
        "sido": "울산",
        "sigungu": "중구",
        "eupmyeondong": "향교길27인근_사거리_신선연립",
        "address": "울산광역시 중구 향교길27인근_사거리_신선연립",
        "purpose": "방범용",
        "latitude": 35.562,
        "longitude": 129.3156,
        "manager_phone": "052-290-4083",
        "police_linked": "Y",
        "bell_id": 1038
    },
    {
        "id": 60925,
        "sido": "울산",
        "sigungu": "중구",
        "eupmyeondong": "태화로206_태화장식인근_사거리",
        "address": "울산광역시 중구 태화로206_태화장식인근_사거리",
        "purpose": "방범용",
        "latitude": 35.55152,
        "longitude": 129.298,
        "manager_phone": "052-290-4083",
        "police_linked": "Y",
        "bell_id": 1340
    },
    {
        "id": 60926,
        "sido": "울산",
        "sigungu": "중구",
        "eupmyeondong": "난곡16길13_사거리_주대륙오토테크인근",
        "address": "울산광역시 중구 난곡16길13_사거리_주대륙오토테크인근",
        "purpose": "방범용",
        "latitude": 35.5545,
        "longitude": 129.2823,
        "manager_phone": "052-290-4083",
        "police_linked": "Y",
        "bell_id": 1341
    },
    {
        "id": 60927,
        "sido": "울산",
        "sigungu": "중구",
        "eupmyeondong": "오산1길37_삼거리_동양텍엘리베이터앞",
        "address": "울산광역시 중구 오산1길37_삼거리_동양텍엘리베이터앞",
        "purpose": "방범용",
        "latitude": 35.55368,
        "longitude": 129.2832,
        "manager_phone": "052-290-4083",
        "police_linked": "Y",
        "bell_id": 1342
    },
    {
        "id": 60928,
        "sido": "울산",
        "sigungu": "중구",
        "eupmyeondong": "명정8길4_사거리_진에어컨인근",
        "address": "울산광역시 중구 명정8길4_사거리_진에어컨인근",
        "purpose": "방범용",
        "latitude": 35.55349,
        "longitude": 129.2876,
        "manager_phone": "052-290-4083",
        "police_linked": "Y",
        "bell_id": 1343
    },
    {
        "id": 60929,
        "sido": "울산",
        "sigungu": "중구",
        "eupmyeondong": "화진4길72_주택가_삼거리",
        "address": "울산광역시 중구 화진4길72_주택가_삼거리",
        "purpose": "방범용",
        "latitude": 35.55613,
        "longitude": 129.3038,
        "manager_phone": "052-290-4083",
        "police_linked": "Y",
        "bell_id": 1344
    },
    {
        "id": 60930,
        "sido": "울산",
        "sigungu": "중구",
        "eupmyeondong": "함월로90-1_스카이공인중개사_사거리",
        "address": "울산광역시 중구 함월로90-1_스카이공인중개사_사거리",
        "purpose": "방범용",
        "latitude": 35.57809,
        "longitude": 129.3152,
        "manager_phone": "052-290-4083",
        "police_linked": "Y",
        "bell_id": 1226
    },
    {
        "id": 60931,
        "sido": "울산",
        "sigungu": "중구",
        "eupmyeondong": "성안동965-8_성동마을회관방향",
        "address": "울산광역시 중구 성안동965-8_성동마을회관방향",
        "purpose": "방범용",
        "latitude": 35.58231,
        "longitude": 129.3068,
        "manager_phone": "052-290-4083",
        "police_linked": "Y",
        "bell_id": 1244
    },
    {
        "id": 60932,
        "sido": "울산",
        "sigungu": "중구",
        "eupmyeondong": "함월8길7인근_사거리_경은빌_건너편",
        "address": "울산광역시 중구 함월8길7인근_사거리_경은빌_건너편",
        "purpose": "방범용",
        "latitude": 35.57366,
        "longitude": 129.3123,
        "manager_phone": "052-290-4083",
        "police_linked": "Y",
        "bell_id": 1227
    },
    {
        "id": 60933,
        "sido": "울산",
        "sigungu": "중구",
        "eupmyeondong": "함월13길34_사거리_정원빌리지인근",
        "address": "울산광역시 중구 함월13길34_사거리_정원빌리지인근",
        "purpose": "방범용",
        "latitude": 35.57644,
        "longitude": 129.3163,
        "manager_phone": "052-290-4083",
        "police_linked": "Y",
        "bell_id": 1228
    },
    {
        "id": 60934,
        "sido": "울산",
        "sigungu": "중구",
        "eupmyeondong": "성안12길24인근_사거리_애니원고후문",
        "address": "울산광역시 중구 성안12길24인근_사거리_애니원고후문",
        "purpose": "방범용",
        "latitude": 35.57878,
        "longitude": 129.322,
        "manager_phone": "052-290-4083",
        "police_linked": "Y",
        "bell_id": 1229
    },
    {
        "id": 60935,
        "sido": "울산",
        "sigungu": "중구",
        "eupmyeondong": "풍암길193_삼거리인근_전주부착형",
        "address": "울산광역시 중구 풍암길193_삼거리인근_전주부착형",
        "purpose": "방범용",
        "latitude": 35.59012,
        "longitude": 129.293,
        "manager_phone": "052-290-4083",
        "police_linked": "Y",
        "bell_id": 1230
    },
    {
        "id": 60936,
        "sido": "울산",
        "sigungu": "중구",
        "eupmyeondong": "성안1길17_삼거리_독수리공원정문앞",
        "address": "울산광역시 중구 성안1길17_삼거리_독수리공원정문앞",
        "purpose": "방범용",
        "latitude": 35.57249,
        "longitude": 129.3161,
        "manager_phone": "052-290-4083",
        "police_linked": "Y",
        "bell_id": 1231
    },
    {
        "id": 60937,
        "sido": "울산",
        "sigungu": "중구",
        "eupmyeondong": "구교9길45_CU편의점인근_사거리",
        "address": "울산광역시 중구 구교9길45_CU편의점인근_사거리",
        "purpose": "방범용",
        "latitude": 35.56226,
        "longitude": 129.3385,
        "manager_phone": "052-290-4083",
        "police_linked": "Y",
        "bell_id": 1041
    },
    {
        "id": 60938,
        "sido": "울산",
        "sigungu": "중구",
        "eupmyeondong": "서원1길100인근_사거리",
        "address": "울산광역시 중구 서원1길100인근_사거리",
        "purpose": "방범용",
        "latitude": 35.55923,
        "longitude": 129.3391,
        "manager_phone": "052-290-4083",
        "police_linked": "Y",
        "bell_id": 1097
    },
    {
        "id": 60939,
        "sido": "울산",
        "sigungu": "중구",
        "eupmyeondong": "길촌길242-20번지부근_삼거리",
        "address": "울산광역시 중구 길촌길242-20번지부근_삼거리",
        "purpose": "방범용",
        "latitude": 35.57747,
        "longitude": 129.2899,
        "manager_phone": "052-290-4083",
        "police_linked": "Y",
        "bell_id": 1337
    },
    {
        "id": 60940,
        "sido": "울산",
        "sigungu": "중구",
        "eupmyeondong": "평산로64-3_주택가_삼거리",
        "address": "울산광역시 중구 평산로64-3_주택가_삼거리",
        "purpose": "방범용",
        "latitude": 35.57217,
        "longitude": 129.3371,
        "manager_phone": "052-290-4083",
        "police_linked": "Y",
        "bell_id": 1239
    },
    {
        "id": 60941,
        "sido": "울산",
        "sigungu": "중구",
        "eupmyeondong": "학성공원길10_차임스빌인근_삼거리",
        "address": "울산광역시 중구 학성공원길10_차임스빌인근_삼거리",
        "purpose": "방범용",
        "latitude": 35.55703,
        "longitude": 129.3405,
        "manager_phone": "052-290-4083",
        "police_linked": "Y",
        "bell_id": 1040
    },
    {
        "id": 60942,
        "sido": "울산",
        "sigungu": "중구",
        "eupmyeondong": "내황7길119인근_삼거리_반구동이지빌라인근",
        "address": "울산광역시 중구 내황7길119인근_삼거리_반구동이지빌라인근",
        "purpose": "방범용",
        "latitude": 35.55085,
        "longitude": 129.3461,
        "manager_phone": "052-290-4083",
        "police_linked": "Y",
        "bell_id": 1100
    },
    {
        "id": 60943,
        "sido": "울산",
        "sigungu": "중구",
        "eupmyeondong": "성안8길87인근_사거리_현대환경산업",
        "address": "울산광역시 중구 성안8길87인근_사거리_현대환경산업",
        "purpose": "방범용",
        "latitude": 35.57924,
        "longitude": 129.3241,
        "manager_phone": "052-290-4083",
        "police_linked": "Y",
        "bell_id": 1241
    },
    {
        "id": 60944,
        "sido": "울산",
        "sigungu": "중구",
        "eupmyeondong": "함월16길8인근_사거리_코리아자동차정비",
        "address": "울산광역시 중구 함월16길8인근_사거리_코리아자동차정비",
        "purpose": "방범용",
        "latitude": 35.57595,
        "longitude": 129.3086,
        "manager_phone": "052-290-4083",
        "police_linked": "Y",
        "bell_id": 1243
    },
    {
        "id": 60945,
        "sido": "울산",
        "sigungu": "중구",
        "eupmyeondong": "함월1길178인근_사거리_함월구민운동장_진입로_도로변",
        "address": "울산광역시 중구 함월1길178인근_사거리_함월구민운동장_진입로_도로변",
        "purpose": "방범용",
        "latitude": 35.57667,
        "longitude": 129.3072,
        "manager_phone": "052-290-4083",
        "police_linked": "Y",
        "bell_id": 1242
    },
    {
        "id": 60946,
        "sido": "울산",
        "sigungu": "중구",
        "eupmyeondong": "함월22길25인근_성안청구타운정문",
        "address": "울산광역시 중구 함월22길25인근_성안청구타운정문",
        "purpose": "방범용",
        "latitude": 35.57967,
        "longitude": 129.3165,
        "manager_phone": "052-290-4083",
        "police_linked": "Y",
        "bell_id": 1240
    },
    {
        "id": 60947,
        "sido": "울산",
        "sigungu": "중구",
        "eupmyeondong": "병영5길11인근_사거리_베니스빌건너편",
        "address": "울산광역시 중구 병영5길11인근_사거리_베니스빌건너편",
        "purpose": "방범용",
        "latitude": 35.57154,
        "longitude": 129.3472,
        "manager_phone": "052-290-4083",
        "police_linked": "Y",
        "bell_id": 1130
    },
    {
        "id": 60948,
        "sido": "울산",
        "sigungu": "중구",
        "eupmyeondong": "동동829인근_폴리텍대학정문_건너편",
        "address": "울산광역시 중구 동동829인근_폴리텍대학정문_건너편",
        "purpose": "방범용",
        "latitude": 35.57968,
        "longitude": 129.3488,
        "manager_phone": "052-290-4083",
        "police_linked": "Y",
        "bell_id": 1131
    },
    {
        "id": 60949,
        "sido": "울산",
        "sigungu": "중구",
        "eupmyeondong": "병영로110인근_사거리_병영2동자율방범대",
        "address": "울산광역시 중구 병영로110인근_사거리_병영2동자율방범대",
        "purpose": "방범용",
        "latitude": 35.57895,
        "longitude": 129.3464,
        "manager_phone": "052-290-4083",
        "police_linked": "Y",
        "bell_id": 1129
    },
    {
        "id": 60950,
        "sido": "울산",
        "sigungu": "중구",
        "eupmyeondong": "명난로79-3_동하빌라앞",
        "address": "울산광역시 중구 명난로79-3_동하빌라앞",
        "purpose": "방범용",
        "latitude": 35.55614,
        "longitude": 129.2872,
        "manager_phone": "052-290-4083",
        "police_linked": "Y",
        "bell_id": 1355
    },
    {
        "id": 60951,
        "sido": "울산",
        "sigungu": "중구",
        "eupmyeondong": "학성5길2인근_삼거리_드림파크진입로건너편",
        "address": "울산광역시 중구 학성5길2인근_삼거리_드림파크진입로건너편",
        "purpose": "방범용",
        "latitude": 35.56038,
        "longitude": 129.332,
        "manager_phone": "052-290-4083",
        "police_linked": "Y",
        "bell_id": 1441
    },
    {
        "id": 60952,
        "sido": "울산",
        "sigungu": "중구",
        "eupmyeondong": "명정5길7인근_삼거리_풍경채음식점",
        "address": "울산광역시 중구 명정5길7인근_삼거리_풍경채음식점",
        "purpose": "방범용",
        "latitude": 35.55374,
        "longitude": 129.289,
        "manager_phone": "052-290-4083",
        "police_linked": "Y",
        "bell_id": 1439
    },
    {
        "id": 60953,
        "sido": "울산",
        "sigungu": "중구",
        "eupmyeondong": "운곡길40인근_사거리_은혜빌",
        "address": "울산광역시 중구 운곡길40인근_사거리_은혜빌",
        "purpose": "방범용",
        "latitude": 35.55812,
        "longitude": 129.2753,
        "manager_phone": "052-290-4083",
        "police_linked": "Y",
        "bell_id": 1102
    },
    {
        "id": 60954,
        "sido": "울산",
        "sigungu": "중구",
        "eupmyeondong": "운곡7길37인근_다운하이츠빌라",
        "address": "울산광역시 중구 운곡7길37인근_다운하이츠빌라",
        "purpose": "방범용",
        "latitude": 35.56003,
        "longitude": 129.2721,
        "manager_phone": "052-290-4083",
        "police_linked": "Y",
        "bell_id": 1096
    },
    {
        "id": 60955,
        "sido": "울산",
        "sigungu": "중구",
        "eupmyeondong": "다운7길138_주택가_삼거리",
        "address": "울산광역시 중구 다운7길138_주택가_삼거리",
        "purpose": "방범용",
        "latitude": 35.5634,
        "longitude": 129.2644,
        "manager_phone": "052-290-4083",
        "police_linked": "Y",
        "bell_id": 1042
    },
    {
        "id": 60956,
        "sido": "울산",
        "sigungu": "중구",
        "eupmyeondong": "해오름11길25인근_사거리_대진상가",
        "address": "울산광역시 중구 해오름11길25인근_사거리_대진상가",
        "purpose": "방범용",
        "latitude": 35.56597,
        "longitude": 129.344,
        "manager_phone": "052-290-4083",
        "police_linked": "Y",
        "bell_id": 1073
    },
    {
        "id": 60957,
        "sido": "울산",
        "sigungu": "중구",
        "eupmyeondong": "해오름7길9인근_삼거리_백양상사",
        "address": "울산광역시 중구 해오름7길9인근_삼거리_백양상사",
        "purpose": "방범용",
        "latitude": 35.56759,
        "longitude": 129.3439,
        "manager_phone": "052-290-4083",
        "police_linked": "Y",
        "bell_id": 1072
    },
    {
        "id": 60958,
        "sido": "울산",
        "sigungu": "중구",
        "eupmyeondong": "구루미7길15인근_사거리_현대종합광고",
        "address": "울산광역시 중구 구루미7길15인근_사거리_현대종합광고",
        "purpose": "방범용",
        "latitude": 35.55677,
        "longitude": 129.2739,
        "manager_phone": "052-290-4083",
        "police_linked": "Y",
        "bell_id": 1099
    },
    {
        "id": 60959,
        "sido": "울산",
        "sigungu": "중구",
        "eupmyeondong": "다운7길50_주택가_삼거리",
        "address": "울산광역시 중구 다운7길50_주택가_삼거리",
        "purpose": "방범용",
        "latitude": 35.55903,
        "longitude": 129.2665,
        "manager_phone": "052-290-4083",
        "police_linked": "Y",
        "bell_id": 1101
    },
    {
        "id": 60960,
        "sido": "울산",
        "sigungu": "중구",
        "eupmyeondong": "주연길167-3_주연마을입구_사거리",
        "address": "울산광역시 중구 주연길167-3_주연마을입구_사거리",
        "purpose": "방범용",
        "latitude": 35.59656,
        "longitude": 129.3241,
        "manager_phone": "052-290-4083",
        "police_linked": "Y",
        "bell_id": 1315
    },
    {
        "id": 60961,
        "sido": "울산",
        "sigungu": "중구",
        "eupmyeondong": "내황2길9_숟가락식당인근_삼거리",
        "address": "울산광역시 중구 내황2길9_숟가락식당인근_삼거리",
        "purpose": "방범용",
        "latitude": 35.55343,
        "longitude": 129.3414,
        "manager_phone": "052-290-4083",
        "police_linked": "Y",
        "bell_id": 1158
    },
    {
        "id": 60962,
        "sido": "울산",
        "sigungu": "중구",
        "eupmyeondong": "반구정3길5_중울산농협_서원점주차장인근_사거리",
        "address": "울산광역시 중구 반구정3길5_중울산농협_서원점주차장인근_사거리",
        "purpose": "방범용",
        "latitude": 35.55517,
        "longitude": 129.3429,
        "manager_phone": "052-290-4083",
        "police_linked": "Y",
        "bell_id": 1159
    },
    {
        "id": 60963,
        "sido": "울산",
        "sigungu": "중구",
        "eupmyeondong": "운곡1길48-1인근_삼거리_꿈사랑어린이집",
        "address": "울산광역시 중구 운곡1길48-1인근_삼거리_꿈사랑어린이집",
        "purpose": "방범용",
        "latitude": 35.55846,
        "longitude": 129.2743,
        "manager_phone": "052-290-4083",
        "police_linked": "Y",
        "bell_id": 1098
    },
    {
        "id": 60964,
        "sido": "울산",
        "sigungu": "중구",
        "eupmyeondong": "학성동298-3_열린어린이집앞",
        "address": "울산광역시 중구 학성동298-3_열린어린이집앞",
        "purpose": "방범용",
        "latitude": 35.55681,
        "longitude": 129.3366,
        "manager_phone": "052-290-4083",
        "police_linked": "Y",
        "bell_id": 1345
    },
    {
        "id": 60965,
        "sido": "울산",
        "sigungu": "중구",
        "eupmyeondong": "곽남7길34_아이파크빌앞",
        "address": "울산광역시 중구 곽남7길34_아이파크빌앞",
        "purpose": "방범용",
        "latitude": 35.57361,
        "longitude": 129.3393,
        "manager_phone": "052-290-4083",
        "police_linked": "Y",
        "bell_id": 1354
    },
    {
        "id": 60966,
        "sido": "울산",
        "sigungu": "중구",
        "eupmyeondong": "함월19길6_라온하우스앞",
        "address": "울산광역시 중구 함월19길6_라온하우스앞",
        "purpose": "방범용",
        "latitude": 35.57791,
        "longitude": 129.3104,
        "manager_phone": "052-290-4083",
        "police_linked": "Y",
        "bell_id": 1349
    },
    {
        "id": 60967,
        "sido": "울산",
        "sigungu": "중구",
        "eupmyeondong": "옥교2길60_번영빌앞",
        "address": "울산광역시 중구 옥교2길60_번영빌앞",
        "purpose": "방범용",
        "latitude": 35.55274,
        "longitude": 129.3284,
        "manager_phone": "052-290-4083",
        "police_linked": "Y",
        "bell_id": 1352
    },
    {
        "id": 60968,
        "sido": "울산",
        "sigungu": "중구",
        "eupmyeondong": "도화골4길31_창조빌리지앞",
        "address": "울산광역시 중구 도화골4길31_창조빌리지앞",
        "purpose": "방범용",
        "latitude": 35.56497,
        "longitude": 129.3324,
        "manager_phone": "052-290-4083",
        "police_linked": "Y",
        "bell_id": 1350
    },
    {
        "id": 60969,
        "sido": "울산",
        "sigungu": "중구",
        "eupmyeondong": "다운동304-1_동아아파트뒤",
        "address": "울산광역시 중구 다운동304-1_동아아파트뒤",
        "purpose": "방범용",
        "latitude": 35.56819,
        "longitude": 129.2649,
        "manager_phone": "052-290-4083",
        "police_linked": "Y",
        "bell_id": 1351
    },
    {
        "id": 60970,
        "sido": "울산",
        "sigungu": "중구",
        "eupmyeondong": "구루미7길55_하늘채앞",
        "address": "울산광역시 중구 구루미7길55_하늘채앞",
        "purpose": "방범용",
        "latitude": 35.55842,
        "longitude": 129.2717,
        "manager_phone": "052-290-4083",
        "police_linked": "Y",
        "bell_id": 1353
    },
    {
        "id": 60971,
        "sido": "울산",
        "sigungu": "중구",
        "eupmyeondong": "해오름14길13_청솔빌라앞",
        "address": "울산광역시 중구 해오름14길13_청솔빌라앞",
        "purpose": "방범용",
        "latitude": 35.56157,
        "longitude": 129.342,
        "manager_phone": "052-290-4083",
        "police_linked": "Y",
        "bell_id": 1348
    },
    {
        "id": 60972,
        "sido": "울산",
        "sigungu": "중구",
        "eupmyeondong": "내황13길32_동서빌라앞",
        "address": "울산광역시 중구 내황13길32_동서빌라앞",
        "purpose": "방범용",
        "latitude": 35.55308,
        "longitude": 129.3483,
        "manager_phone": "052-290-4083",
        "police_linked": "Y",
        "bell_id": 1346
    },
    {
        "id": 60973,
        "sido": "울산",
        "sigungu": "중구",
        "eupmyeondong": "내황11길34_생활용품점앞",
        "address": "울산광역시 중구 내황11길34_생활용품점앞",
        "purpose": "방범용",
        "latitude": 35.55275,
        "longitude": 129.3446,
        "manager_phone": "052-290-4083",
        "police_linked": "Y",
        "bell_id": 1347
    },
    {
        "id": 60974,
        "sido": "울산",
        "sigungu": "중구",
        "eupmyeondong": "병영성8길49_백마주택앞",
        "address": "울산광역시 중구 병영성8길49_백마주택앞",
        "purpose": "방범용",
        "latitude": 35.57709,
        "longitude": 129.3449,
        "manager_phone": "052-290-4083",
        "police_linked": "Y",
        "bell_id": 1146
    },
    {
        "id": 60975,
        "sido": "울산",
        "sigungu": "중구",
        "eupmyeondong": "구루미5길47_신세대슈퍼앞",
        "address": "울산광역시 중구 구루미5길47_신세대슈퍼앞",
        "purpose": "방범용",
        "latitude": 35.55766,
        "longitude": 129.2694,
        "manager_phone": "052-290-4083",
        "police_linked": "Y",
        "bell_id": 1356
    },
    {
        "id": 60976,
        "sido": "울산",
        "sigungu": "중구",
        "eupmyeondong": "다운5길56_줄리어드음악학원앞",
        "address": "울산광역시 중구 다운5길56_줄리어드음악학원앞",
        "purpose": "방범용",
        "latitude": 35.56586,
        "longitude": 129.2664,
        "manager_phone": "052-290-4083",
        "police_linked": "Y",
        "bell_id": 1357
    },
    {
        "id": 60977,
        "sido": "울산",
        "sigungu": "중구",
        "eupmyeondong": "옥교동128-6_푸른세상요양원_북서측인근",
        "address": "울산광역시 중구 옥교동128-6_푸른세상요양원_북서측인근",
        "purpose": "방범용",
        "latitude": 35.55597,
        "longitude": 129.3233,
        "manager_phone": "052-290-4083",
        "police_linked": "Y",
        "bell_id": 1447
    },
    {
        "id": 60978,
        "sido": "울산",
        "sigungu": "중구",
        "eupmyeondong": "곽남16길52_가온누리빌라인근",
        "address": "울산광역시 중구 곽남16길52_가온누리빌라인근",
        "purpose": "방범용",
        "latitude": 35.57224,
        "longitude": 129.3429,
        "manager_phone": "052-290-4083",
        "police_linked": "Y",
        "bell_id": 1443
    },
    {
        "id": 60979,
        "sido": "울산",
        "sigungu": "중구",
        "eupmyeondong": "해오름3길4_경진아파트_북동측인근",
        "address": "울산광역시 중구 해오름3길4_경진아파트_북동측인근",
        "purpose": "방범용",
        "latitude": 35.56161,
        "longitude": 129.3447,
        "manager_phone": "052-290-4083",
        "police_linked": "Y",
        "bell_id": 1444
    },
    {
        "id": 60980,
        "sido": "울산",
        "sigungu": "중구",
        "eupmyeondong": "학성동35-29_뉴공원빌라_남측인근",
        "address": "울산광역시 중구 학성동35-29_뉴공원빌라_남측인근",
        "purpose": "방범용",
        "latitude": 35.55706,
        "longitude": 129.3378,
        "manager_phone": "052-290-4083",
        "police_linked": "Y",
        "bell_id": 1446
    },
    {
        "id": 60981,
        "sido": "울산",
        "sigungu": "중구",
        "eupmyeondong": "약사동917-1_약사제방유적전시관_남서측_체육시설인근",
        "address": "울산광역시 중구 약사동917-1_약사제방유적전시관_남서측_체육시설인근",
        "purpose": "방범용",
        "latitude": 35.57527,
        "longitude": 129.3345,
        "manager_phone": "052-290-4083",
        "police_linked": "Y",
        "bell_id": 1442
    },
    {
        "id": 60982,
        "sido": "울산",
        "sigungu": "중구",
        "eupmyeondong": "태화동752_남경태화빌라인근",
        "address": "울산광역시 중구 태화동752_남경태화빌라인근",
        "purpose": "방범용",
        "latitude": 35.55357,
        "longitude": 129.2903,
        "manager_phone": "052-290-4083",
        "police_linked": "Y",
        "bell_id": 1449
    },
    {
        "id": 60983,
        "sido": "울산",
        "sigungu": "중구",
        "eupmyeondong": "태화동938-9_새아펠리스빌라_동측인근",
        "address": "울산광역시 중구 태화동938-9_새아펠리스빌라_동측인근",
        "purpose": "방범용",
        "latitude": 35.55484,
        "longitude": 129.2803,
        "manager_phone": "052-290-4083",
        "police_linked": "Y",
        "bell_id": 1450
    },
    {
        "id": 60984,
        "sido": "울산",
        "sigungu": "중구",
        "eupmyeondong": "우정동276-44_울산새중앙교회_동측인근",
        "address": "울산광역시 중구 우정동276-44_울산새중앙교회_동측인근",
        "purpose": "방범용",
        "latitude": 35.5541,
        "longitude": 129.3152,
        "manager_phone": "052-290-4083",
        "police_linked": "Y",
        "bell_id": 1448
    },
    {
        "id": 60985,
        "sido": "울산",
        "sigungu": "중구",
        "eupmyeondong": "복산동189-5_성지아파트정문인근",
        "address": "울산광역시 중구 복산동189-5_성지아파트정문인근",
        "purpose": "방범용",
        "latitude": 35.5667,
        "longitude": 129.331,
        "manager_phone": "052-290-4083",
        "police_linked": "Y",
        "bell_id": 1451
    },
    {
        "id": 60986,
        "sido": "울산",
        "sigungu": "중구",
        "eupmyeondong": "반구동777-5_세민에스요양병원_남동측인근",
        "address": "울산광역시 중구 반구동777-5_세민에스요양병원_남동측인근",
        "purpose": "방범용",
        "latitude": 35.55243,
        "longitude": 129.3419,
        "manager_phone": "052-290-4083",
        "police_linked": "Y",
        "bell_id": 1445
    },
    {
        "id": 60987,
        "sido": "울산",
        "sigungu": "중구",
        "eupmyeondong": "산전길123_한국폴리텍대학_남동측삼거리",
        "address": "울산광역시 중구 산전길123_한국폴리텍대학_남동측삼거리",
        "purpose": "방범용",
        "latitude": 35.57867,
        "longitude": 129.3494,
        "manager_phone": "052-290-4083",
        "police_linked": "Y",
        "bell_id": 1453
    },
    {
        "id": 60988,
        "sido": "울산",
        "sigungu": "중구",
        "eupmyeondong": "산전5길5_산전온누리교회_남서측사거리",
        "address": "울산광역시 중구 산전5길5_산전온누리교회_남서측사거리",
        "purpose": "방범용",
        "latitude": 35.57681,
        "longitude": 129.3494,
        "manager_phone": "052-290-4083",
        "police_linked": "Y",
        "bell_id": 1454
    },
    {
        "id": 60989,
        "sido": "울산",
        "sigungu": "중구",
        "eupmyeondong": "산전길94-6_산전경로회관인근",
        "address": "울산광역시 중구 산전길94-6_산전경로회관인근",
        "purpose": "방범용",
        "latitude": 35.57646,
        "longitude": 129.3507,
        "manager_phone": "052-290-4083",
        "police_linked": "Y",
        "bell_id": 1455
    },
    {
        "id": 60990,
        "sido": "울산",
        "sigungu": "중구",
        "eupmyeondong": "산전5길27_보광그린빌라_남동측삼거리",
        "address": "울산광역시 중구 산전5길27_보광그린빌라_남동측삼거리",
        "purpose": "방범용",
        "latitude": 35.57792,
        "longitude": 129.3485,
        "manager_phone": "052-290-4083",
        "police_linked": "Y",
        "bell_id": 1456
    },
    {
        "id": 60991,
        "sido": "울산",
        "sigungu": "중구",
        "eupmyeondong": "동동121-1_화성전기서측삼거리",
        "address": "울산광역시 중구 동동121-1_화성전기서측삼거리",
        "purpose": "방범용",
        "latitude": 35.57795,
        "longitude": 129.3494,
        "manager_phone": "052-290-4083",
        "police_linked": "Y",
        "bell_id": 1457
    },
    {
        "id": 60992,
        "sido": "울산",
        "sigungu": "중구",
        "eupmyeondong": "산전길107-3_한양빌라인근",
        "address": "울산광역시 중구 산전길107-3_한양빌라인근",
        "purpose": "방범용",
        "latitude": 35.57746,
        "longitude": 129.3493,
        "manager_phone": "052-290-4083",
        "police_linked": "Y",
        "bell_id": 1458
    },
    {
        "id": 60993,
        "sido": "울산",
        "sigungu": "중구",
        "eupmyeondong": "동동830-111_산전교서측사거리",
        "address": "울산광역시 중구 동동830-111_산전교서측사거리",
        "purpose": "방범용",
        "latitude": 35.57729,
        "longitude": 129.3501,
        "manager_phone": "052-290-4083",
        "police_linked": "Y",
        "bell_id": 1459
    },
    {
        "id": 60994,
        "sido": "울산",
        "sigungu": "중구",
        "eupmyeondong": "우정동436-36_꿈동이어린이집",
        "address": "울산광역시 중구 우정동436-36_꿈동이어린이집 인근",
        "purpose": "방범용",
        "latitude": 35.56016,
        "longitude": 129.3117,
        "manager_phone": "052-290-4083",
        "police_linked": "Y",
        "bell_id": 1464
    },
    {
        "id": 60995,
        "sido": "울산",
        "sigungu": "중구",
        "eupmyeondong": "태화동460-2_희마아파트",
        "address": "울산광역시 중구 태화동460-2_희마아파트 남측",
        "purpose": "방범용",
        "latitude": 35.55377,
        "longitude": 129.2943,
        "manager_phone": "052-290-4083",
        "police_linked": "Y",
        "bell_id": 1463
    },
    {
        "id": 60996,
        "sido": "울산",
        "sigungu": "중구",
        "eupmyeondong": "교동118-2_교동교",
        "address": "울산광역시 중구 교동118-2_교동교 하부",
        "purpose": "방범용",
        "latitude": 35.56253,
        "longitude": 129.3136,
        "manager_phone": "052-290-4083",
        "police_linked": "Y",
        "bell_id": 1462
    },
    {
        "id": 60997,
        "sido": "울산",
        "sigungu": "중구",
        "eupmyeondong": "복산동464-1_펜트하우스빌라_인근",
        "address": "울산광역시 중구 복산동464-1_펜트하우스빌라_인근",
        "purpose": "방범용",
        "latitude": 35.56057,
        "longitude": 129.3288,
        "manager_phone": "052-290-4083",
        "police_linked": "Y",
        "bell_id": 1461
    },
    {
        "id": 60998,
        "sido": "울산",
        "sigungu": "중구",
        "eupmyeondong": "반구동460-1_광성빌라_남측",
        "address": "울산광역시 중구 반구동460-1_광성빌라_남측",
        "purpose": "방범용",
        "latitude": 35.55704,
        "longitude": 129.3432,
        "manager_phone": "052-290-4083",
        "police_linked": "Y",
        "bell_id": 1460
    },
    {
        "id": 60999,
        "sido": "울산",
        "sigungu": "중구",
        "eupmyeondong": "서동70-1_서동공원_북측",
        "address": "울산광역시 중구 서동70-1_서동공원_북측",
        "purpose": "방범용",
        "latitude": 35.57775,
        "longitude": 129.343,
        "manager_phone": "052-290-4083",
        "police_linked": "Y",
        "bell_id": 1465
    },
    {
        "id": 61000,
        "sido": "울산",
        "sigungu": "중구",
        "eupmyeondong": "서동470-2_라온수피아유치원_서측",
        "address": "울산광역시 중구 서동470-2_라온수피아유치원_서측",
        "purpose": "방범용",
        "latitude": 35.57288,
        "longitude": 129.3453,
        "manager_phone": "052-290-4083",
        "police_linked": "Y",
        "bell_id": 1466
    },
    {
        "id": 61001,
        "sido": "울산",
        "sigungu": "중구",
        "eupmyeondong": "동동715_효림빌라인근",
        "address": "울산광역시 중구 동동715_효림빌라인근",
        "purpose": "방범용",
        "latitude": 35.57351,
        "longitude": 129.3472,
        "manager_phone": "052-290-4083",
        "police_linked": "Y",
        "bell_id": 1467
    },
    {
        "id": 61002,
        "sido": "울산",
        "sigungu": "중구",
        "eupmyeondong": "병영16길",
        "address": "울산광역시 중구 병영16길 5 인근 사거리",
        "purpose": "방범용",
        "latitude": 35.57668,
        "longitude": 129.3467,
        "manager_phone": "052-290-4083",
        "police_linked": "Y",
        "bell_id": 1494
    },
    {
        "id": 61003,
        "sido": "울산",
        "sigungu": "중구",
        "eupmyeondong": "약사동539-4_울산학생교육문화회관_서측_삼거리",
        "address": "울산광역시 중구 약사동539-4_울산학생교육문화회관_서측_삼거리",
        "purpose": "방범용",
        "latitude": 35.57287,
        "longitude": 129.3379,
        "manager_phone": "052-290-4083",
        "police_linked": "Y",
        "bell_id": 1481
    },
    {
        "id": 61004,
        "sido": "울산",
        "sigungu": "중구",
        "eupmyeondong": "약사동310-9_약사제방유적전시관_출입구_사거리",
        "address": "울산광역시 중구 약사동310-9_약사제방유적전시관_출입구_사거리",
        "purpose": "방범용",
        "latitude": 35.57742,
        "longitude": 129.3377,
        "manager_phone": "052-290-4083",
        "police_linked": "Y",
        "bell_id": 1478
    },
    {
        "id": 61005,
        "sido": "울산",
        "sigungu": "중구",
        "eupmyeondong": "학성동371-53_학성9길2_입구_삼거리",
        "address": "울산광역시 중구 학성동371-53_학성9길2_입구_삼거리",
        "purpose": "방범용",
        "latitude": 35.55829,
        "longitude": 129.3337,
        "manager_phone": "052-290-4083",
        "police_linked": "Y",
        "bell_id": 1469
    },
    {
        "id": 61006,
        "sido": "울산",
        "sigungu": "중구",
        "eupmyeondong": "학성동371-34_학성1길",
        "address": "울산광역시 중구 학성동371-34_학성1길 65-2 주택앞",
        "purpose": "방범용",
        "latitude": 35.55777,
        "longitude": 129.3333,
        "manager_phone": "052-290-4083",
        "police_linked": "Y",
        "bell_id": 1470
    },
    {
        "id": 61007,
        "sido": "울산",
        "sigungu": "중구",
        "eupmyeondong": "학성동366-10_학성9길",
        "address": "울산광역시 중구 학성동366-10_학성9길 19 주택앞",
        "purpose": "방범용",
        "latitude": 35.55768,
        "longitude": 129.3338,
        "manager_phone": "052-290-4083",
        "police_linked": "Y",
        "bell_id": 1471
    },
    {
        "id": 61008,
        "sido": "울산",
        "sigungu": "중구",
        "eupmyeondong": "학성동326-23_학성10길2_아모레퍼시픽울산영업소_건너편",
        "address": "울산광역시 중구 학성동326-23_학성10길2_아모레퍼시픽울산영업소_건너편",
        "purpose": "방범용",
        "latitude": 35.55717,
        "longitude": 129.3348,
        "manager_phone": "052-290-4083",
        "police_linked": "Y",
        "bell_id": 1472
    },
    {
        "id": 61009,
        "sido": "울산",
        "sigungu": "중구",
        "eupmyeondong": "학성동366-3_중앙농협학성지점_북측",
        "address": "울산광역시 중구 학성동366-3_중앙농협학성지점_북측",
        "purpose": "방범용",
        "latitude": 35.55735,
        "longitude": 129.334,
        "manager_phone": "052-290-4083",
        "police_linked": "Y",
        "bell_id": 1473
    },
    {
        "id": 61010,
        "sido": "울산",
        "sigungu": "중구",
        "eupmyeondong": "학성동140-5_동백시니어센터_동측_사거리",
        "address": "울산광역시 중구 학성동140-5_동백시니어센터_동측_사거리",
        "purpose": "방범용",
        "latitude": 35.55342,
        "longitude": 129.3381,
        "manager_phone": "052-290-4083",
        "police_linked": "Y",
        "bell_id": 1482
    },
    {
        "id": 61011,
        "sido": "울산",
        "sigungu": "중구",
        "eupmyeondong": "구루미8길29_사거리",
        "address": "울산광역시 중구 구루미8길29_사거리",
        "purpose": "방범용",
        "latitude": 35.55838,
        "longitude": 129.2702,
        "manager_phone": "052-290-4083",
        "police_linked": "Y",
        "bell_id": 1007
    },
    {
        "id": 61012,
        "sido": "울산",
        "sigungu": "중구",
        "eupmyeondong": "운곡4길6_가마솥돼지국밥앞",
        "address": "울산광역시 중구 운곡4길6_가마솥돼지국밥앞",
        "purpose": "방범용",
        "latitude": 35.55839,
        "longitude": 129.2727,
        "manager_phone": "052-290-4083",
        "police_linked": "Y",
        "bell_id": 1006
    },
    {
        "id": 61013,
        "sido": "울산",
        "sigungu": "중구",
        "eupmyeondong": "다운동553_공터주차장앞",
        "address": "울산광역시 중구 다운동553_공터주차장앞",
        "purpose": "방범용",
        "latitude": 35.55775,
        "longitude": 129.2764,
        "manager_phone": "052-290-4083",
        "police_linked": "Y",
        "bell_id": 1009
    },
    {
        "id": 61014,
        "sido": "울산",
        "sigungu": "중구",
        "eupmyeondong": "다운동768_다운아파트103동후문",
        "address": "울산광역시 중구 다운동768_다운아파트103동후문",
        "purpose": "방범용",
        "latitude": 35.56358,
        "longitude": 129.269,
        "manager_phone": "052-290-4083",
        "police_linked": "Y",
        "bell_id": 1013
    },
    {
        "id": 61015,
        "sido": "울산",
        "sigungu": "중구",
        "eupmyeondong": "구루미2길61-1_주택앞",
        "address": "울산광역시 중구 구루미2길61-1_주택앞",
        "purpose": "방범용",
        "latitude": 35.55871,
        "longitude": 129.2692,
        "manager_phone": "052-290-4083",
        "police_linked": "Y",
        "bell_id": 1015
    },
    {
        "id": 61016,
        "sido": "울산",
        "sigungu": "중구",
        "eupmyeondong": "입화산참살이숲야영장_동측_성안진입로",
        "address": "울산광역시 중구 입화산참살이숲야영장_동측_성안진입로",
        "purpose": "방범용",
        "latitude": 35.57838,
        "longitude": 129.2845,
        "manager_phone": "052-290-4083",
        "police_linked": "Y",
        "bell_id": 1016
    },
    {
        "id": 61017,
        "sido": "울산",
        "sigungu": "중구",
        "eupmyeondong": "구루미9길2_다운자전거연습장",
        "address": "울산광역시 중구 구루미9길2_다운자전거연습장",
        "purpose": "방범용",
        "latitude": 35.55547,
        "longitude": 129.2743,
        "manager_phone": "052-290-4083",
        "police_linked": "Y",
        "bell_id": 1014
    },
    {
        "id": 61018,
        "sido": "울산",
        "sigungu": "중구",
        "eupmyeondong": "입화산참살이숲야영장_계곡풀장앞",
        "address": "울산광역시 중구 입화산참살이숲야영장_계곡풀장앞",
        "purpose": "방범용",
        "latitude": 35.57681,
        "longitude": 129.2771,
        "manager_phone": "052-290-4083",
        "police_linked": "Y",
        "bell_id": 1017
    },
    {
        "id": 61019,
        "sido": "울산",
        "sigungu": "중구",
        "eupmyeondong": "다운동702_동아아파트103동앞",
        "address": "울산광역시 중구 다운동702_동아아파트103동앞",
        "purpose": "방범용",
        "latitude": 35.56817,
        "longitude": 129.2665,
        "manager_phone": "052-290-4083",
        "police_linked": "Y",
        "bell_id": 1022
    },
    {
        "id": 61020,
        "sido": "울산",
        "sigungu": "중구",
        "eupmyeondong": "운곡8길12_다운은혜세탁",
        "address": "울산광역시 중구 운곡8길12_다운은혜세탁",
        "purpose": "방범용",
        "latitude": 35.5568,
        "longitude": 129.2749,
        "manager_phone": "052-290-4083",
        "police_linked": "Y",
        "bell_id": 1023
    },
    {
        "id": 61021,
        "sido": "울산",
        "sigungu": "중구",
        "eupmyeondong": "구루미7길33_명송농원",
        "address": "울산광역시 중구 구루미7길33_명송농원",
        "purpose": "방범용",
        "latitude": 35.55765,
        "longitude": 129.2728,
        "manager_phone": "052-290-4083",
        "police_linked": "Y",
        "bell_id": 1024
    },
    {
        "id": 61022,
        "sido": "울산",
        "sigungu": "중구",
        "eupmyeondong": "다운7길75_다운삼거리",
        "address": "울산광역시 중구 다운7길75_다운삼거리",
        "purpose": "방범용",
        "latitude": 35.55997,
        "longitude": 129.2648,
        "manager_phone": "052-290-4083",
        "police_linked": "Y",
        "bell_id": 1025
    },
    {
        "id": 61023,
        "sido": "울산",
        "sigungu": "중구",
        "eupmyeondong": "다운동769-1_다운아파트103동뒤편",
        "address": "울산광역시 중구 다운동769-1_다운아파트103동뒤편",
        "purpose": "방범용",
        "latitude": 35.56404,
        "longitude": 129.2684,
        "manager_phone": "052-290-4083",
        "police_linked": "Y",
        "bell_id": 1027
    },
    {
        "id": 61024,
        "sido": "울산",
        "sigungu": "중구",
        "eupmyeondong": "운곡7길88_삼성아파트앞",
        "address": "울산광역시 중구 운곡7길88_삼성아파트앞",
        "purpose": "방범용",
        "latitude": 35.5586,
        "longitude": 129.2754,
        "manager_phone": "052-290-4083",
        "police_linked": "Y",
        "bell_id": 1028
    },
    {
        "id": 61025,
        "sido": "울산",
        "sigungu": "중구",
        "eupmyeondong": "다운19길50인근_사거리",
        "address": "울산광역시 중구 다운19길50인근_사거리",
        "purpose": "방범용",
        "latitude": 35.56666,
        "longitude": 129.2656,
        "manager_phone": "052-290-4083",
        "police_linked": "Y",
        "bell_id": 1035
    },
    {
        "id": 61026,
        "sido": "울산",
        "sigungu": "중구",
        "eupmyeondong": "다운7길118인근_삼거리",
        "address": "울산광역시 중구 다운7길118인근_삼거리",
        "purpose": "방범용",
        "latitude": 35.56266,
        "longitude": 129.2658,
        "manager_phone": "052-290-4083",
        "police_linked": "Y",
        "bell_id": 1036
    },
    {
        "id": 61027,
        "sido": "울산",
        "sigungu": "중구",
        "eupmyeondong": "남외로85-9인근_삼거리",
        "address": "울산광역시 중구 남외로85-9인근_삼거리",
        "purpose": "방범용",
        "latitude": 35.5676,
        "longitude": 129.345,
        "manager_phone": "052-290-4083",
        "police_linked": "Y",
        "bell_id": 1154
    },
    {
        "id": 61028,
        "sido": "울산",
        "sigungu": "중구",
        "eupmyeondong": "구루미5길21인근_사거리",
        "address": "울산광역시 중구 구루미5길21인근_사거리",
        "purpose": "방범용",
        "latitude": 35.55915,
        "longitude": 129.269,
        "manager_phone": "052-290-4083",
        "police_linked": "Y",
        "bell_id": 1037
    },
    {
        "id": 61029,
        "sido": "울산",
        "sigungu": "중구",
        "eupmyeondong": "산전5길17_홍일할인마트",
        "address": "울산광역시 중구 산전5길17_홍일할인마트",
        "purpose": "방범용",
        "latitude": 35.57725,
        "longitude": 129.3485,
        "manager_phone": "052-290-4083",
        "police_linked": "Y",
        "bell_id": 1135
    },
    {
        "id": 61030,
        "sido": "울산",
        "sigungu": "중구",
        "eupmyeondong": "동동65-55_병영지하차도위",
        "address": "울산광역시 중구 동동65-55_병영지하차도위",
        "purpose": "방범용",
        "latitude": 35.5774,
        "longitude": 129.3465,
        "manager_phone": "052-290-4083",
        "police_linked": "Y",
        "bell_id": 1137
    },
    {
        "id": 61031,
        "sido": "울산",
        "sigungu": "중구",
        "eupmyeondong": "산전길101_온누리교회옆",
        "address": "울산광역시 중구 산전길101_온누리교회옆",
        "purpose": "방범용",
        "latitude": 35.57693,
        "longitude": 129.3498,
        "manager_phone": "052-290-4083",
        "police_linked": "Y",
        "bell_id": 1138
    },
    {
        "id": 61032,
        "sido": "울산",
        "sigungu": "중구",
        "eupmyeondong": "산전길78-8_강남로얄파크앞",
        "address": "울산광역시 중구 산전길78-8_강남로얄파크앞",
        "purpose": "방범용",
        "latitude": 35.57539,
        "longitude": 129.3507,
        "manager_phone": "052-290-4083",
        "police_linked": "Y",
        "bell_id": 1139
    },
    {
        "id": 61033,
        "sido": "울산",
        "sigungu": "중구",
        "eupmyeondong": "병영2길51_백송빌옆",
        "address": "울산광역시 중구 병영2길51_백송빌옆",
        "purpose": "방범용",
        "latitude": 35.57426,
        "longitude": 129.3472,
        "manager_phone": "052-290-4083",
        "police_linked": "Y",
        "bell_id": 1140
    },
    {
        "id": 61034,
        "sido": "울산",
        "sigungu": "중구",
        "eupmyeondong": "병영10길23_명호빌라6차",
        "address": "울산광역시 중구 병영10길23_명호빌라6차",
        "purpose": "방범용",
        "latitude": 35.57308,
        "longitude": 129.3478,
        "manager_phone": "052-290-4083",
        "police_linked": "Y",
        "bell_id": 1147
    },
    {
        "id": 61035,
        "sido": "울산",
        "sigungu": "중구",
        "eupmyeondong": "병영6길31_동원빌라앞",
        "address": "울산광역시 중구 병영6길31_동원빌라앞",
        "purpose": "방범용",
        "latitude": 35.57182,
        "longitude": 129.3489,
        "manager_phone": "052-290-4083",
        "police_linked": "Y",
        "bell_id": 1145
    },
    {
        "id": 61036,
        "sido": "울산",
        "sigungu": "중구",
        "eupmyeondong": "병영16길20_병영성",
        "address": "울산광역시 중구 병영16길20_병영성",
        "purpose": "방범용",
        "latitude": 35.5767,
        "longitude": 129.3477,
        "manager_phone": "052-290-4083",
        "police_linked": "Y",
        "bell_id": 1148
    },
    {
        "id": 61037,
        "sido": "울산",
        "sigungu": "중구",
        "eupmyeondong": "병영6길35_현대골든타워_사거리",
        "address": "울산광역시 중구 병영6길35_현대골든타워_사거리",
        "purpose": "방범용",
        "latitude": 35.57186,
        "longitude": 129.3495,
        "manager_phone": "052-290-4083",
        "police_linked": "Y",
        "bell_id": 1149
    },
    {
        "id": 61038,
        "sido": "울산",
        "sigungu": "중구",
        "eupmyeondong": "병영2길69_주택가",
        "address": "울산광역시 중구 병영2길69_주택가",
        "purpose": "방범용",
        "latitude": 35.57615,
        "longitude": 129.3471,
        "manager_phone": "052-290-4083",
        "police_linked": "Y",
        "bell_id": 1151
    },
    {
        "id": 61039,
        "sido": "울산",
        "sigungu": "중구",
        "eupmyeondong": "병영7길36_외솔한옥도서관인근",
        "address": "울산광역시 중구 병영7길36_외솔한옥도서관인근",
        "purpose": "방범용",
        "latitude": 35.5749,
        "longitude": 129.3479,
        "manager_phone": "052-290-4083",
        "police_linked": "Y",
        "bell_id": 1152
    },
    {
        "id": 61040,
        "sido": "울산",
        "sigungu": "중구",
        "eupmyeondong": "병영10길40_동문빌라인근",
        "address": "울산광역시 중구 병영10길40_동문빌라인근",
        "purpose": "방범용",
        "latitude": 35.57406,
        "longitude": 129.349,
        "manager_phone": "052-290-4083",
        "police_linked": "Y",
        "bell_id": 1153
    },
    {
        "id": 61041,
        "sido": "울산",
        "sigungu": "중구",
        "eupmyeondong": "학성동355-18_창조애드웰아파트_북동측_사거리",
        "address": "울산광역시 중구 학성동355-18_창조애드웰아파트_북동측_사거리",
        "purpose": "방범용",
        "latitude": 35.55616,
        "longitude": 129.3346,
        "manager_phone": "052-290-4083",
        "police_linked": "Y",
        "bell_id": 1483
    },
    {
        "id": 61042,
        "sido": "울산",
        "sigungu": "중구",
        "eupmyeondong": "교동396_주택가_사거리",
        "address": "울산광역시 중구 교동396_주택가_사거리",
        "purpose": "방범용",
        "latitude": 35.5584,
        "longitude": 129.3167,
        "manager_phone": "052-290-4083",
        "police_linked": "Y",
        "bell_id": 1479
    },
    {
        "id": 61043,
        "sido": "울산",
        "sigungu": "중구",
        "eupmyeondong": "교동238-10_금강빌라_서측_60m지점",
        "address": "울산광역시 중구 교동238-10_금강빌라_서측_60m지점 사거리",
        "purpose": "방범용",
        "latitude": 35.56051,
        "longitude": 129.3192,
        "manager_phone": "052-290-4083",
        "police_linked": "Y",
        "bell_id": 1480
    },
    {
        "id": 61044,
        "sido": "울산",
        "sigungu": "중구",
        "eupmyeondong": "성안12길",
        "address": "울산광역시 중구 성안12길 4 인근 사거리",
        "purpose": "방범용",
        "latitude": 35.57959,
        "longitude": 129.3203,
        "manager_phone": "052-290-4083",
        "police_linked": "Y",
        "bell_id": 1484
    },
    {
        "id": 61045,
        "sido": "울산",
        "sigungu": "중구",
        "eupmyeondong": "성안동",
        "address": "울산광역시 중구 성안동 1608 인근 사거리",
        "purpose": "방범용",
        "latitude": 35.57783,
        "longitude": 129.3059,
        "manager_phone": "052-290-4083",
        "police_linked": "Y",
        "bell_id": 1485
    },
    {
        "id": 61046,
        "sido": "울산",
        "sigungu": "중구",
        "eupmyeondong": "함월5길",
        "address": "울산광역시 중구 함월5길 35 금호어울림 106동 인근 사거리",
        "purpose": "방범용",
        "latitude": 35.57563,
        "longitude": 129.3062,
        "manager_phone": "052-290-4083",
        "police_linked": "Y",
        "bell_id": 1486
    },
    {
        "id": 61047,
        "sido": "울산",
        "sigungu": "중구",
        "eupmyeondong": "구루미7길",
        "address": "울산광역시 중구 구루미7길 39-5 백조빌라앞 삼거리",
        "purpose": "방범용",
        "latitude": 35.55724,
        "longitude": 129.2719,
        "manager_phone": "052-290-4083",
        "police_linked": "Y",
        "bell_id": 1495
    },
    {
        "id": 61048,
        "sido": "울산",
        "sigungu": "중구",
        "eupmyeondong": "다운5길",
        "address": "울산광역시 중구 다운5길 14-4 앞 삼거리",
        "purpose": "방범용",
        "latitude": 35.56366,
        "longitude": 129.2684,
        "manager_phone": "052-290-4083",
        "police_linked": "Y",
        "bell_id": 1496
    },
    {
        "id": 61049,
        "sido": "울산",
        "sigungu": "중구",
        "eupmyeondong": "운곡8길",
        "address": "울산광역시 중구 운곡8길 88 맞은편 삼거리",
        "purpose": "방범용",
        "latitude": 35.55991,
        "longitude": 129.2708,
        "manager_phone": "052-290-4083",
        "police_linked": "Y",
        "bell_id": 1490
    },
    {
        "id": 61050,
        "sido": "울산",
        "sigungu": "중구",
        "eupmyeondong": "곽남12길",
        "address": "울산광역시 중구 곽남12길 20 앞 사거리",
        "purpose": "방범용",
        "latitude": 35.57038,
        "longitude": 129.3414,
        "manager_phone": "052-290-4083",
        "police_linked": "Y",
        "bell_id": 1491
    },
    {
        "id": 61051,
        "sido": "울산",
        "sigungu": "중구",
        "eupmyeondong": "해오름5길",
        "address": "울산광역시 중구 해오름5길 14-2 앞 삼거리",
        "purpose": "방범용",
        "latitude": 35.56436,
        "longitude": 129.3449,
        "manager_phone": "052-290-4083",
        "police_linked": "Y",
        "bell_id": 1492
    },
    {
        "id": 61052,
        "sido": "울산",
        "sigungu": "중구",
        "eupmyeondong": "병영성4길",
        "address": "울산광역시 중구 병영성4길 15 인근 삼거리",
        "purpose": "방범용",
        "latitude": 35.57464,
        "longitude": 129.3402,
        "manager_phone": "052-290-4083",
        "police_linked": "Y",
        "bell_id": 1493
    },
    {
        "id": 61053,
        "sido": "울산",
        "sigungu": "중구",
        "eupmyeondong": "명난로",
        "address": "울산광역시 중구 명난로 95 맞은편 삼거리",
        "purpose": "방범용",
        "latitude": 35.55453,
        "longitude": 129.2883,
        "manager_phone": "052-290-4083",
        "police_linked": "Y",
        "bell_id": 1488
    },
    {
        "id": 61054,
        "sido": "울산",
        "sigungu": "중구",
        "eupmyeondong": "난곡13길",
        "address": "울산광역시 중구 난곡13길 58 인근 삼거리",
        "purpose": "방범용",
        "latitude": 35.55734,
        "longitude": 129.2807,
        "manager_phone": "052-290-4083",
        "police_linked": "Y",
        "bell_id": 1489
    },
    {
        "id": 61055,
        "sido": "울산",
        "sigungu": "중구",
        "eupmyeondong": "평동2길",
        "address": "울산광역시 중구 평동2길 14 주택가 앞 오거리",
        "purpose": "방범용",
        "latitude": 35.55808,
        "longitude": 129.3039,
        "manager_phone": "052-290-4083",
        "police_linked": "Y",
        "bell_id": 1487
    },
    {
        "id": 61056,
        "sido": "울산",
        "sigungu": "중구",
        "eupmyeondong": "복산동783_손골경로당앞_삼거리",
        "address": "울산광역시 중구 복산동783_손골경로당앞_삼거리",
        "purpose": "방범용",
        "latitude": 35.56462,
        "longitude": 129.3229,
        "manager_phone": "052-290-4083",
        "police_linked": "Y",
        "bell_id": 1476
    },
    {
        "id": 61057,
        "sido": "울산",
        "sigungu": "중구",
        "eupmyeondong": "복산동83-15_서한이다음106동_남서측_사거리",
        "address": "울산광역시 중구 복산동83-15_서한이다음106동_남서측_사거리",
        "purpose": "방범용",
        "latitude": 35.56338,
        "longitude": 129.3331,
        "manager_phone": "052-290-4083",
        "police_linked": "Y",
        "bell_id": 1477
    },
    {
        "id": 61058,
        "sido": "울산",
        "sigungu": "중구",
        "eupmyeondong": "반구동942_아담아파트3동_출입구_삼거리",
        "address": "울산광역시 중구 반구동942_아담아파트3동_출입구_삼거리",
        "purpose": "방범용",
        "latitude": 35.56011,
        "longitude": 129.3511,
        "manager_phone": "052-290-4083",
        "police_linked": "Y",
        "bell_id": 1474
    },
    {
        "id": 61059,
        "sido": "울산",
        "sigungu": "중구",
        "eupmyeondong": "반구동290-10_현대그랜드맨션_북서측_사거리",
        "address": "울산광역시 중구 반구동290-10_현대그랜드맨션_북서측_사거리",
        "purpose": "방범용",
        "latitude": 35.55826,
        "longitude": 129.348,
        "manager_phone": "052-290-4083",
        "police_linked": "Y",
        "bell_id": 1475
    },
    {
        "id": 61060,
        "sido": "울산",
        "sigungu": "중구",
        "eupmyeondong": "반구동445-12_중울산농협_반구지점앞",
        "address": "울산광역시 중구 반구동445-12_중울산농협_반구지점앞",
        "purpose": "방범용",
        "latitude": 35.55667,
        "longitude": 129.341,
        "manager_phone": "052-290-4083",
        "police_linked": "Y",
        "bell_id": 1498
    },
    {
        "id": 61061,
        "sido": "울산",
        "sigungu": "중구",
        "eupmyeondong": "반구동453-19_귀빈이용원앞",
        "address": "울산광역시 중구 반구동453-19_귀빈이용원앞",
        "purpose": "방범용",
        "latitude": 35.55794,
        "longitude": 129.3452,
        "manager_phone": "052-290-4083",
        "police_linked": "Y",
        "bell_id": 1499
    },
    {
        "id": 61062,
        "sido": "울산",
        "sigungu": "중구",
        "eupmyeondong": "태화동341_현대한의원앞",
        "address": "울산광역시 중구 태화동341_현대한의원앞 사거리",
        "purpose": "방범용",
        "latitude": 35.55314,
        "longitude": 129.2854,
        "manager_phone": "052-290-4083",
        "police_linked": "Y",
        "bell_id": 1500
    },
    {
        "id": 61063,
        "sido": "울산",
        "sigungu": "중구",
        "eupmyeondong": "서원14길",
        "address": "울산광역시 중구 서원14길 20-2 충의사 인근",
        "purpose": "방범용",
        "latitude": 35.55757,
        "longitude": 129.3367,
        "manager_phone": "052-290-4083",
        "police_linked": "Y",
        "bell_id": 1501
    },
    {
        "id": 61064,
        "sido": "울산",
        "sigungu": "중구",
        "eupmyeondong": "복산동",
        "address": "울산광역시 중구 복산동 112-2 홈플러스 뒤편길",
        "purpose": "방범용",
        "latitude": 35.56415,
        "longitude": 129.3338,
        "manager_phone": "052-290-4083",
        "police_linked": "Y",
        "bell_id": 1502
    },
    {
        "id": 61065,
        "sido": "울산",
        "sigungu": "중구",
        "eupmyeondong": "함월6길",
        "address": "울산광역시 중구 함월6길 13 TBN 울산교통방송 인근",
        "purpose": "방범용",
        "latitude": 35.57332,
        "longitude": 129.3136,
        "manager_phone": "052-290-4083",
        "police_linked": "Y",
        "bell_id": 1503
    },
    {
        "id": 61066,
        "sido": "울산",
        "sigungu": "중구",
        "eupmyeondong": "옥교12길",
        "address": "울산광역시 중구 옥교12길 17 새치삼거리 인근",
        "purpose": "방범용",
        "latitude": 35.55502,
        "longitude": 129.3275,
        "manager_phone": "052-290-4083",
        "police_linked": "Y",
        "bell_id": 1504
    },
    {
        "id": 61067,
        "sido": "울산",
        "sigungu": "중구",
        "eupmyeondong": "난곡13길",
        "address": "울산광역시 중구 난곡13길 3 브니엘어린이집앞",
        "purpose": "방범용",
        "latitude": 35.55575,
        "longitude": 129.2769,
        "manager_phone": "052-290-4083",
        "police_linked": "Y",
        "bell_id": 1505
    },
    {
        "id": 61068,
        "sido": "울산",
        "sigungu": "중구",
        "eupmyeondong": "태화로",
        "address": "울산광역시 중구 태화로 42 삼거리",
        "purpose": "방범용",
        "latitude": 35.5543,
        "longitude": 129.2806,
        "manager_phone": "052-290-4083",
        "police_linked": "Y",
        "bell_id": 1506
    },
    {
        "id": 61069,
        "sido": "울산",
        "sigungu": "중구",
        "eupmyeondong": "해오름8길",
        "address": "울산광역시 중구 해오름8길 103-1 대양공인중개사 삼거리",
        "purpose": "방범용",
        "latitude": 35.56729,
        "longitude": 129.3446,
        "manager_phone": "052-290-4083",
        "police_linked": "Y",
        "bell_id": 1507
    },
    {
        "id": 61070,
        "sido": "울산",
        "sigungu": "중구",
        "eupmyeondong": "서원10길15_정원빌라",
        "address": "울산광역시 중구 서원10길15_정원빌라",
        "purpose": "방범용",
        "latitude": 35.55801,
        "longitude": 129.3384,
        "manager_phone": "052-290-4083",
        "police_linked": "Y",
        "bell_id": 1049
    },
    {
        "id": 61071,
        "sido": "울산",
        "sigungu": "중구",
        "eupmyeondong": "서원2길78_크린크린세탁앞",
        "address": "울산광역시 중구 서원2길78_크린크린세탁앞",
        "purpose": "방범용",
        "latitude": 35.56008,
        "longitude": 129.3388,
        "manager_phone": "052-290-4083",
        "police_linked": "Y",
        "bell_id": 1075
    },
    {
        "id": 61072,
        "sido": "울산",
        "sigungu": "중구",
        "eupmyeondong": "반구정13길68_한라그랜드인근",
        "address": "울산광역시 중구 반구정13길68_한라그랜드인근",
        "purpose": "방범용",
        "latitude": 35.55708,
        "longitude": 129.3478,
        "manager_phone": "052-290-4083",
        "police_linked": "Y",
        "bell_id": 1051
    },
    {
        "id": 61073,
        "sido": "울산",
        "sigungu": "중구",
        "eupmyeondong": "내황6길52_천지강변뒤",
        "address": "울산광역시 중구 내황6길52_천지강변뒤",
        "purpose": "방범용",
        "latitude": 35.55131,
        "longitude": 129.3444,
        "manager_phone": "052-290-4083",
        "police_linked": "Y",
        "bell_id": 1050
    },
    {
        "id": 61074,
        "sido": "울산",
        "sigungu": "중구",
        "eupmyeondong": "반구정10길46_한신아트빌라",
        "address": "울산광역시 중구 반구정10길46_한신아트빌라",
        "purpose": "방범용",
        "latitude": 35.55593,
        "longitude": 129.3443,
        "manager_phone": "052-290-4083",
        "police_linked": "Y",
        "bell_id": 1056
    },
    {
        "id": 61075,
        "sido": "울산",
        "sigungu": "중구",
        "eupmyeondong": "반구정4길66_반구어린이집",
        "address": "울산광역시 중구 반구정4길66_반구어린이집",
        "purpose": "방범용",
        "latitude": 35.55863,
        "longitude": 129.3445,
        "manager_phone": "052-290-4083",
        "police_linked": "Y",
        "bell_id": 1057
    },
    {
        "id": 61076,
        "sido": "울산",
        "sigungu": "중구",
        "eupmyeondong": "구교13길36_화이트빌",
        "address": "울산광역시 중구 구교13길36_화이트빌",
        "purpose": "방범용",
        "latitude": 35.56617,
        "longitude": 129.3407,
        "manager_phone": "052-290-4083",
        "police_linked": "Y",
        "bell_id": 1076
    },
    {
        "id": 61077,
        "sido": "울산",
        "sigungu": "중구",
        "eupmyeondong": "화합로340_반구1동주민센터앞사거리",
        "address": "울산광역시 중구 화합로340_반구1동주민센터앞사거리",
        "purpose": "방범용",
        "latitude": 35.55617,
        "longitude": 129.3417,
        "manager_phone": "052-290-4083",
        "police_linked": "Y",
        "bell_id": 1060
    },
    {
        "id": 61078,
        "sido": "울산",
        "sigungu": "중구",
        "eupmyeondong": "구교12길40_구교쉼터앞사거리",
        "address": "울산광역시 중구 구교12길40_구교쉼터앞사거리",
        "purpose": "방범용",
        "latitude": 35.56495,
        "longitude": 129.34,
        "manager_phone": "052-290-4083",
        "police_linked": "Y",
        "bell_id": 1077
    },
    {
        "id": 61079,
        "sido": "울산",
        "sigungu": "중구",
        "eupmyeondong": "반구동50_가온중북서측사거리",
        "address": "울산광역시 중구 반구동50_가온중북서측사거리",
        "purpose": "방범용",
        "latitude": 35.56418,
        "longitude": 129.3377,
        "manager_phone": "052-290-4083",
        "police_linked": "Y",
        "bell_id": 1078
    },
    {
        "id": 61080,
        "sido": "울산",
        "sigungu": "중구",
        "eupmyeondong": "반구정16길12_자연애마트앞",
        "address": "울산광역시 중구 반구정16길12_자연애마트앞",
        "purpose": "방범용",
        "latitude": 35.55935,
        "longitude": 129.3463,
        "manager_phone": "052-290-4083",
        "police_linked": "Y",
        "bell_id": 1061
    },
    {
        "id": 61081,
        "sido": "울산",
        "sigungu": "중구",
        "eupmyeondong": "반구정6길31_반구팔팔슈퍼앞",
        "address": "울산광역시 중구 반구정6길31_반구팔팔슈퍼앞",
        "purpose": "방범용",
        "latitude": 35.55698,
        "longitude": 129.3451,
        "manager_phone": "052-290-4083",
        "police_linked": "Y",
        "bell_id": 1052
    },
    {
        "id": 61082,
        "sido": "울산",
        "sigungu": "중구",
        "eupmyeondong": "반구정1길36_공영주차장앞",
        "address": "울산광역시 중구 반구정1길36_공영주차장앞",
        "purpose": "방범용",
        "latitude": 35.55719,
        "longitude": 129.342,
        "manager_phone": "052-290-4083",
        "police_linked": "Y",
        "bell_id": 1053
    },
    {
        "id": 61083,
        "sido": "울산",
        "sigungu": "중구",
        "eupmyeondong": "내황10길16_울산중앙여고인근",
        "address": "울산광역시 중구 내황10길16_울산중앙여고인근",
        "purpose": "방범용",
        "latitude": 35.55387,
        "longitude": 129.3434,
        "manager_phone": "052-290-4083",
        "police_linked": "Y",
        "bell_id": 1054
    },
    {
        "id": 61084,
        "sido": "울산",
        "sigungu": "중구",
        "eupmyeondong": "내황12길26_수정세탁앞",
        "address": "울산광역시 중구 내황12길26_수정세탁앞",
        "purpose": "방범용",
        "latitude": 35.55297,
        "longitude": 129.346,
        "manager_phone": "052-290-4083",
        "police_linked": "Y",
        "bell_id": 1055
    },
    {
        "id": 61085,
        "sido": "울산",
        "sigungu": "중구",
        "eupmyeondong": "반구정14길25_구언양식육점앞",
        "address": "울산광역시 중구 반구정14길25_구언양식육점앞",
        "purpose": "방범용",
        "latitude": 35.55799,
        "longitude": 129.344,
        "manager_phone": "052-290-4083",
        "police_linked": "Y",
        "bell_id": 1062
    },
    {
        "id": 61086,
        "sido": "울산",
        "sigungu": "중구",
        "eupmyeondong": "구교6길67_화용세탁앞",
        "address": "울산광역시 중구 구교6길67_화용세탁앞",
        "purpose": "방범용",
        "latitude": 35.5652,
        "longitude": 129.3415,
        "manager_phone": "052-290-4083",
        "police_linked": "Y",
        "bell_id": 1080
    },
    {
        "id": 61087,
        "sido": "울산",
        "sigungu": "중구",
        "eupmyeondong": "서원1길11_동광세탁앞",
        "address": "울산광역시 중구 서원1길11_동광세탁앞",
        "purpose": "방범용",
        "latitude": 35.5629,
        "longitude": 129.3355,
        "manager_phone": "052-290-4083",
        "police_linked": "Y",
        "bell_id": 1081
    },
    {
        "id": 61088,
        "sido": "울산",
        "sigungu": "중구",
        "eupmyeondong": "서원9길36_세영빌라앞",
        "address": "울산광역시 중구 서원9길36_세영빌라앞",
        "purpose": "방범용",
        "latitude": 35.5587,
        "longitude": 129.3376,
        "manager_phone": "052-290-4083",
        "police_linked": "Y",
        "bell_id": 1082
    },
    {
        "id": 61089,
        "sido": "울산",
        "sigungu": "중구",
        "eupmyeondong": "구교1길10_우리들마트앞",
        "address": "울산광역시 중구 구교1길10_우리들마트앞",
        "purpose": "방범용",
        "latitude": 35.56088,
        "longitude": 129.3398,
        "manager_phone": "052-290-4083",
        "police_linked": "Y",
        "bell_id": 1083
    },
    {
        "id": 61090,
        "sido": "울산",
        "sigungu": "중구",
        "eupmyeondong": "내황4길44_진성아트빌라",
        "address": "울산광역시 중구 내황4길44_진성아트빌라",
        "purpose": "방범용",
        "latitude": 35.55234,
        "longitude": 129.344,
        "manager_phone": "052-290-4083",
        "police_linked": "Y",
        "bell_id": 1063
    },
    {
        "id": 61091,
        "sido": "울산",
        "sigungu": "중구",
        "eupmyeondong": "반구정20길55_삼거리",
        "address": "울산광역시 중구 반구정20길55_삼거리",
        "purpose": "방범용",
        "latitude": 35.55913,
        "longitude": 129.3478,
        "manager_phone": "052-290-4083",
        "police_linked": "Y",
        "bell_id": 1064
    },
    {
        "id": 61092,
        "sido": "울산",
        "sigungu": "중구",
        "eupmyeondong": "반구정14길12_새마을금고_사거리",
        "address": "울산광역시 중구 반구정14길12_새마을금고_사거리",
        "purpose": "방범용",
        "latitude": 35.55808,
        "longitude": 129.3432,
        "manager_phone": "052-290-4083",
        "police_linked": "Y",
        "bell_id": 1065
    },
    {
        "id": 61093,
        "sido": "울산",
        "sigungu": "중구",
        "eupmyeondong": "구교8길87_빅세일마트앞",
        "address": "울산광역시 중구 구교8길87_빅세일마트앞",
        "purpose": "방범용",
        "latitude": 35.56678,
        "longitude": 129.3419,
        "manager_phone": "052-290-4083",
        "police_linked": "Y",
        "bell_id": 1084
    },
    {
        "id": 61094,
        "sido": "울산",
        "sigungu": "중구",
        "eupmyeondong": "해오름길14_경남은행뒤_하모니빌앞",
        "address": "울산광역시 중구 해오름길14_경남은행뒤_하모니빌앞",
        "purpose": "방범용",
        "latitude": 35.55931,
        "longitude": 129.342,
        "manager_phone": "052-290-4083",
        "police_linked": "Y",
        "bell_id": 1085
    },
    {
        "id": 61095,
        "sido": "울산",
        "sigungu": "중구",
        "eupmyeondong": "반구정12길73-1_반구정",
        "address": "울산광역시 중구 반구정12길73-1_반구정",
        "purpose": "방범용",
        "latitude": 35.55656,
        "longitude": 129.3489,
        "manager_phone": "052-290-4083",
        "police_linked": "Y",
        "bell_id": 1067
    },
    {
        "id": 61096,
        "sido": "울산",
        "sigungu": "중구",
        "eupmyeondong": "반구정17길10-4_모림테크_크리닝센터",
        "address": "울산광역시 중구 반구정17길10-4_모림테크_크리닝센터",
        "purpose": "방범용",
        "latitude": 35.5597,
        "longitude": 129.3467,
        "manager_phone": "052-290-4083",
        "police_linked": "Y",
        "bell_id": 1068
    },
    {
        "id": 61097,
        "sido": "울산",
        "sigungu": "중구",
        "eupmyeondong": "구교6길6_이주아트빌",
        "address": "울산광역시 중구 구교6길6_이주아트빌",
        "purpose": "방범용",
        "latitude": 35.56306,
        "longitude": 129.3379,
        "manager_phone": "052-290-4083",
        "police_linked": "Y",
        "bell_id": 1086
    },
    {
        "id": 61098,
        "sido": "울산",
        "sigungu": "중구",
        "eupmyeondong": "서원6길11_신울산아파트",
        "address": "울산광역시 중구 서원6길11_신울산아파트",
        "purpose": "방범용",
        "latitude": 35.56132,
        "longitude": 129.3369,
        "manager_phone": "052-290-4083",
        "police_linked": "Y",
        "bell_id": 1087
    },
    {
        "id": 61099,
        "sido": "울산",
        "sigungu": "중구",
        "eupmyeondong": "내황길13_동선사앞",
        "address": "울산광역시 중구 내황길13_동선사앞",
        "purpose": "방범용",
        "latitude": 35.55399,
        "longitude": 129.3422,
        "manager_phone": "052-290-4083",
        "police_linked": "Y",
        "bell_id": 1066
    },
    {
        "id": 61100,
        "sido": "울산",
        "sigungu": "중구",
        "eupmyeondong": "병영성길",
        "address": "울산광역시 중구 병영성길 41 도담어린이집앞",
        "purpose": "방범용",
        "latitude": 35.57513,
        "longitude": 129.3429,
        "manager_phone": "052-290-4083",
        "police_linked": "Y",
        "bell_id": 1508
    },
    {
        "id": 61101,
        "sido": "울산",
        "sigungu": "중구",
        "eupmyeondong": "산전길",
        "address": "울산광역시 중구 산전길 61 어련당앞",
        "purpose": "방범용",
        "latitude": 35.57435,
        "longitude": 129.3504,
        "manager_phone": "052-290-4083",
        "police_linked": "Y",
        "bell_id": 1509
    },
    {
        "id": 61102,
        "sido": "울산",
        "sigungu": "중구",
        "eupmyeondong": "병영1길",
        "address": "울산광역시 중구 병영1길 45 서진다세대빌라인근",
        "purpose": "방범용",
        "latitude": 35.57297,
        "longitude": 129.3493,
        "manager_phone": "052-290-4083",
        "police_linked": "Y",
        "bell_id": 1510
    },
    {
        "id": 61103,
        "sido": "울산",
        "sigungu": "중구",
        "eupmyeondong": "태화동",
        "address": "울산광역시 중구 태화동 200-7 동덕현대맨션 101동 앞",
        "purpose": "방범용",
        "latitude": 35.55765,
        "longitude": 129.302,
        "manager_phone": "052-290-4083",
        "police_linked": "Y",
        "bell_id": 1511
    },
    {
        "id": 61104,
        "sido": "울산",
        "sigungu": "중구",
        "eupmyeondong": "태화동",
        "address": "울산광역시 중구 태화동 20-3 태화동행정복지센터 앞",
        "purpose": "방범용",
        "latitude": 35.55672,
        "longitude": 129.3044,
        "manager_phone": "052-290-4083",
        "police_linked": "Y",
        "bell_id": 1512
    },
    {
        "id": 61105,
        "sido": "울산",
        "sigungu": "중구",
        "eupmyeondong": "유곡동",
        "address": "울산광역시 중구 유곡동 106-2 우정파크맨션 앞",
        "purpose": "방범용",
        "latitude": 35.55746,
        "longitude": 129.3063,
        "manager_phone": "052-290-4083",
        "police_linked": "Y",
        "bell_id": 1513
    },
    {
        "id": 61106,
        "sido": "울산",
        "sigungu": "중구",
        "eupmyeondong": "남외동416-29_푸라닥치킨앞",
        "address": "울산광역시 중구 남외동416-29_푸라닥치킨앞",
        "purpose": "방범용",
        "latitude": 35.57166,
        "longitude": 129.3398,
        "manager_phone": "052-290-4083",
        "police_linked": "Y",
        "bell_id": 1514
    },
    {
        "id": 61107,
        "sido": "울산",
        "sigungu": "중구",
        "eupmyeondong": "남외동437-3_병영오거리",
        "address": "울산광역시 중구 남외동437-3_병영오거리",
        "purpose": "방범용",
        "latitude": 35.56866,
        "longitude": 129.3435,
        "manager_phone": "052-290-4083",
        "police_linked": "Y",
        "bell_id": 1515
    },
    {
        "id": 61108,
        "sido": "울산",
        "sigungu": "중구",
        "eupmyeondong": "남외동",
        "address": "울산광역시 중구 남외동 346-7세븐일레븐앞",
        "purpose": "방범용",
        "latitude": 35.57001,
        "longitude": 129.3425,
        "manager_phone": "052-290-4083",
        "police_linked": "Y",
        "bell_id": 1516
    },
    {
        "id": 61109,
        "sido": "울산",
        "sigungu": "중구",
        "eupmyeondong": "태화로37_린나이뒤",
        "address": "울산광역시 중구 태화로37_린나이뒤",
        "purpose": "기타",
        "latitude": 35.55517,
        "longitude": 129.279,
        "manager_phone": "052-290-4083",
        "police_linked": "Y",
        "bell_id": 4022
    },
    {
        "id": 61110,
        "sido": "울산",
        "sigungu": "중구",
        "eupmyeondong": "반구동38-3_구교공원",
        "address": "울산광역시 중구 반구동38-3_구교공원",
        "purpose": "기타",
        "latitude": 35.56409,
        "longitude": 129.3418,
        "manager_phone": "052-290-4083",
        "police_linked": "Y",
        "bell_id": 4034
    },
    {
        "id": 61111,
        "sido": "울산",
        "sigungu": "중구",
        "eupmyeondong": "학성동64_학성공원내부_진입로우측",
        "address": "울산광역시 중구 학성동64_학성공원내부_진입로우측",
        "purpose": "기타",
        "latitude": 35.55563,
        "longitude": 129.3377,
        "manager_phone": "052-290-4083",
        "police_linked": "Y",
        "bell_id": 4110
    },
    {
        "id": 61112,
        "sido": "울산",
        "sigungu": "중구",
        "eupmyeondong": "태화동834-11_난곡공원",
        "address": "울산광역시 중구 태화동834-11_난곡공원",
        "purpose": "기타",
        "latitude": 35.55426,
        "longitude": 129.2864,
        "manager_phone": "052-290-4083",
        "police_linked": "Y",
        "bell_id": 4020
    },
    {
        "id": 61113,
        "sido": "울산",
        "sigungu": "중구",
        "eupmyeondong": "다운동686-1_다전생태공원_다리옆",
        "address": "울산광역시 중구 다운동686-1_다전생태공원_다리옆",
        "purpose": "기타",
        "latitude": 35.56695,
        "longitude": 129.2679,
        "manager_phone": "052-290-4083",
        "police_linked": "Y",
        "bell_id": 4001
    },
    {
        "id": 61114,
        "sido": "울산",
        "sigungu": "중구",
        "eupmyeondong": "학성동387_일원_학성제2공원B",
        "address": "울산광역시 중구 학성동387_일원_학성제2공원B",
        "purpose": "기타",
        "latitude": 35.55927,
        "longitude": 129.3354,
        "manager_phone": "052-290-4083",
        "police_linked": "Y",
        "bell_id": 4114
    },
    {
        "id": 61115,
        "sido": "울산",
        "sigungu": "중구",
        "eupmyeondong": "학성동387_일원_학성제2공원A",
        "address": "울산광역시 중구 학성동387_일원_학성제2공원A",
        "purpose": "기타",
        "latitude": 35.55928,
        "longitude": 129.3343,
        "manager_phone": "052-290-4083",
        "police_linked": "Y",
        "bell_id": 4113
    },
    {
        "id": 61116,
        "sido": "울산",
        "sigungu": "중구",
        "eupmyeondong": "태화동453-10_신기공원",
        "address": "울산광역시 중구 태화동453-10_신기공원",
        "purpose": "기타",
        "latitude": 35.55006,
        "longitude": 129.2943,
        "manager_phone": "052-290-4083",
        "police_linked": "Y",
        "bell_id": 4098
    },
    {
        "id": 61117,
        "sido": "울산",
        "sigungu": "중구",
        "eupmyeondong": "태화동856_명난공원",
        "address": "울산광역시 중구 태화동856_명난공원",
        "purpose": "기타",
        "latitude": 35.55553,
        "longitude": 129.2831,
        "manager_phone": "052-290-4083",
        "police_linked": "Y",
        "bell_id": 4003
    },
    {
        "id": 61118,
        "sido": "울산",
        "sigungu": "중구",
        "eupmyeondong": "태화동929_다사랑공원",
        "address": "울산광역시 중구 태화동929_다사랑공원",
        "purpose": "기타",
        "latitude": 35.55672,
        "longitude": 129.2793,
        "manager_phone": "052-290-4083",
        "police_linked": "Y",
        "bell_id": 4002
    },
    {
        "id": 61119,
        "sido": "울산",
        "sigungu": "중구",
        "eupmyeondong": "서동60-8_삼일공원",
        "address": "울산광역시 중구 서동60-8_삼일공원",
        "purpose": "기타",
        "latitude": 35.57897,
        "longitude": 129.3454,
        "manager_phone": "052-290-4083",
        "police_linked": "Y",
        "bell_id": 4045
    },
    {
        "id": 61120,
        "sido": "울산",
        "sigungu": "중구",
        "eupmyeondong": "서동69-1_서동공원",
        "address": "울산광역시 중구 서동69-1_서동공원",
        "purpose": "기타",
        "latitude": 35.57749,
        "longitude": 129.3429,
        "manager_phone": "052-290-4083",
        "police_linked": "Y",
        "bell_id": 4044
    },
    {
        "id": 61121,
        "sido": "울산",
        "sigungu": "중구",
        "eupmyeondong": "복산동32-5_계변공원",
        "address": "울산광역시 중구 복산동32-5_계변공원",
        "purpose": "기타",
        "latitude": 35.56229,
        "longitude": 129.3359,
        "manager_phone": "052-290-4083",
        "police_linked": "Y",
        "bell_id": 4059
    },
    {
        "id": 61122,
        "sido": "울산",
        "sigungu": "중구",
        "eupmyeondong": "복산동354_손골공원",
        "address": "울산광역시 중구 복산동354_손골공원",
        "purpose": "기타",
        "latitude": 35.56172,
        "longitude": 129.3281,
        "manager_phone": "052-290-4083",
        "police_linked": "Y",
        "bell_id": 4053
    },
    {
        "id": 61123,
        "sido": "울산",
        "sigungu": "중구",
        "eupmyeondong": "서원1길96_송학공원",
        "address": "울산광역시 중구 서원1길96_송학공원",
        "purpose": "기타",
        "latitude": 35.55906,
        "longitude": 129.3387,
        "manager_phone": "052-290-4083",
        "police_linked": "Y",
        "bell_id": 4035
    },
    {
        "id": 61124,
        "sido": "울산",
        "sigungu": "중구",
        "eupmyeondong": "다운동800_다정공원",
        "address": "울산광역시 중구 다운동800_다정공원",
        "purpose": "기타",
        "latitude": 35.56367,
        "longitude": 129.2654,
        "manager_phone": "052-290-4083",
        "police_linked": "Y",
        "bell_id": 4007
    },
    {
        "id": 61125,
        "sido": "울산",
        "sigungu": "중구",
        "eupmyeondong": "다운동579_구루미공원",
        "address": "울산광역시 중구 다운동579_구루미공원",
        "purpose": "기타",
        "latitude": 35.56041,
        "longitude": 129.2693,
        "manager_phone": "052-290-4083",
        "police_linked": "Y",
        "bell_id": 4006
    },
    {
        "id": 61126,
        "sido": "울산",
        "sigungu": "중구",
        "eupmyeondong": "다운동600-10_양지공원",
        "address": "울산광역시 중구 다운동600-10_양지공원",
        "purpose": "기타",
        "latitude": 35.55674,
        "longitude": 129.2713,
        "manager_phone": "052-290-4083",
        "police_linked": "Y",
        "bell_id": 4005
    },
    {
        "id": 61127,
        "sido": "울산",
        "sigungu": "중구",
        "eupmyeondong": "다운동516-1_운곡공원",
        "address": "울산광역시 중구 다운동516-1_운곡공원",
        "purpose": "기타",
        "latitude": 35.5587,
        "longitude": 129.2748,
        "manager_phone": "052-290-4083",
        "police_linked": "Y",
        "bell_id": 4004
    },
    {
        "id": 61128,
        "sido": "울산",
        "sigungu": "중구",
        "eupmyeondong": "남외동8-8_곽남공원",
        "address": "울산광역시 중구 남외동8-8_곽남공원",
        "purpose": "기타",
        "latitude": 35.57526,
        "longitude": 129.3416,
        "manager_phone": "052-290-4083",
        "police_linked": "Y",
        "bell_id": 4038
    },
    {
        "id": 61129,
        "sido": "울산",
        "sigungu": "중구",
        "eupmyeondong": "남외동501-2_해오름공원",
        "address": "울산광역시 중구 남외동501-2_해오름공원",
        "purpose": "기타",
        "latitude": 35.56721,
        "longitude": 129.3462,
        "manager_phone": "052-290-4083",
        "police_linked": "Y",
        "bell_id": 4037
    },
    {
        "id": 61130,
        "sido": "울산",
        "sigungu": "중구",
        "eupmyeondong": "반구정5길3_반구경로당",
        "address": "울산광역시 중구 반구정5길3_반구경로당",
        "purpose": "방범용",
        "latitude": 35.55525,
        "longitude": 129.3442,
        "manager_phone": "052-290-4083",
        "police_linked": "Y",
        "bell_id": 1069
    },
    {
        "id": 61131,
        "sido": "울산",
        "sigungu": "중구",
        "eupmyeondong": "서원7길13_사거리_진주영재어린이집",
        "address": "울산광역시 중구 서원7길13_사거리_진주영재어린이집",
        "purpose": "방범용",
        "latitude": 35.56049,
        "longitude": 129.3375,
        "manager_phone": "052-290-4083",
        "police_linked": "Y",
        "bell_id": 1088
    },
    {
        "id": 61132,
        "sido": "울산",
        "sigungu": "중구",
        "eupmyeondong": "구교3길23-1_골목길회전",
        "address": "울산광역시 중구 구교3길23-1_골목길회전",
        "purpose": "방범용",
        "latitude": 35.56297,
        "longitude": 129.3408,
        "manager_phone": "052-290-4083",
        "police_linked": "Y",
        "bell_id": 1089
    },
    {
        "id": 61133,
        "sido": "울산",
        "sigungu": "중구",
        "eupmyeondong": "반구동799_반구사거리",
        "address": "울산광역시 중구 반구동799_반구사거리",
        "purpose": "방범용",
        "latitude": 35.55812,
        "longitude": 129.3415,
        "manager_phone": "052-290-4083",
        "police_linked": "Y",
        "bell_id": 1070
    },
    {
        "id": 61134,
        "sido": "울산",
        "sigungu": "중구",
        "eupmyeondong": "내황1길26_부영빌라앞",
        "address": "울산광역시 중구 내황1길26_부영빌라앞",
        "purpose": "방범용",
        "latitude": 35.5535,
        "longitude": 129.3467,
        "manager_phone": "052-290-4083",
        "police_linked": "Y",
        "bell_id": 1071
    },
    {
        "id": 61135,
        "sido": "울산",
        "sigungu": "중구",
        "eupmyeondong": "구교12길15_광토빌리지",
        "address": "울산광역시 중구 구교12길15_광토빌리지",
        "purpose": "방범용",
        "latitude": 35.56376,
        "longitude": 129.3412,
        "manager_phone": "052-290-4083",
        "police_linked": "Y",
        "bell_id": 1090
    },
    {
        "id": 61136,
        "sido": "울산",
        "sigungu": "중구",
        "eupmyeondong": "구교5길30_주민센터앞",
        "address": "울산광역시 중구 구교5길30_주민센터앞",
        "purpose": "방범용",
        "latitude": 35.56401,
        "longitude": 129.3405,
        "manager_phone": "052-290-4083",
        "police_linked": "Y",
        "bell_id": 1091
    },
    {
        "id": 61137,
        "sido": "울산",
        "sigungu": "중구",
        "eupmyeondong": "내황7길65_리치메이트",
        "address": "울산광역시 중구 내황7길65_리치메이트",
        "purpose": "방범용",
        "latitude": 35.55148,
        "longitude": 129.3417,
        "manager_phone": "052-290-4083",
        "police_linked": "Y",
        "bell_id": 1094
    },
    {
        "id": 61138,
        "sido": "울산",
        "sigungu": "중구",
        "eupmyeondong": "반구정6길66앞_동진아파트_남동측사거리",
        "address": "울산광역시 중구 반구정6길66앞_동진아파트_남동측사거리",
        "purpose": "방범용",
        "latitude": 35.55923,
        "longitude": 129.3452,
        "manager_phone": "052-290-4083",
        "police_linked": "Y",
        "bell_id": 1093
    },
    {
        "id": 61139,
        "sido": "울산",
        "sigungu": "중구",
        "eupmyeondong": "반구로36_중앙여고후문인근_사거리",
        "address": "울산광역시 중구 반구로36_중앙여고후문인근_사거리",
        "purpose": "방범용",
        "latitude": 35.55468,
        "longitude": 129.3448,
        "manager_phone": "052-290-4083",
        "police_linked": "Y",
        "bell_id": 1092
    },
    {
        "id": 61140,
        "sido": "울산",
        "sigungu": "중구",
        "eupmyeondong": "서원5길9_아름빌인근_사거리",
        "address": "울산광역시 중구 서원5길9_아름빌인근_사거리",
        "purpose": "방범용",
        "latitude": 35.56235,
        "longitude": 129.3367,
        "manager_phone": "052-290-4083",
        "police_linked": "Y",
        "bell_id": 1095
    },
    {
        "id": 61141,
        "sido": "울산",
        "sigungu": "중구",
        "eupmyeondong": "서원5길52_여성회관북측",
        "address": "울산광역시 중구 서원5길52_여성회관북측",
        "purpose": "방범용",
        "latitude": 35.56089,
        "longitude": 129.3342,
        "manager_phone": "052-290-4083",
        "police_linked": "Y",
        "bell_id": 1181
    },
    {
        "id": 61142,
        "sido": "울산",
        "sigungu": "중구",
        "eupmyeondong": "계변로93_성신고동측",
        "address": "울산광역시 중구 계변로93_성신고동측",
        "purpose": "방범용",
        "latitude": 35.56345,
        "longitude": 129.3292,
        "manager_phone": "052-290-4083",
        "police_linked": "Y",
        "bell_id": 1162
    },
    {
        "id": 61143,
        "sido": "울산",
        "sigungu": "중구",
        "eupmyeondong": "푸름길23-1_부산슈퍼앞",
        "address": "울산광역시 중구 푸름길23-1_부산슈퍼앞",
        "purpose": "방범용",
        "latitude": 35.55954,
        "longitude": 129.3253,
        "manager_phone": "052-290-4083",
        "police_linked": "Y",
        "bell_id": 1164
    },
    {
        "id": 61144,
        "sido": "울산",
        "sigungu": "중구",
        "eupmyeondong": "복산동205-1_도화공원",
        "address": "울산광역시 중구 복산동205-1_도화공원",
        "purpose": "방범용",
        "latitude": 35.56641,
        "longitude": 129.3315,
        "manager_phone": "052-290-4083",
        "police_linked": "Y",
        "bell_id": 1182
    },
    {
        "id": 61145,
        "sido": "울산",
        "sigungu": "중구",
        "eupmyeondong": "도화골5길4_병천순대국밥앞",
        "address": "울산광역시 중구 도화골5길4_병천순대국밥앞",
        "purpose": "방범용",
        "latitude": 35.56714,
        "longitude": 129.3326,
        "manager_phone": "052-290-4083",
        "police_linked": "Y",
        "bell_id": 1183
    },
    {
        "id": 61146,
        "sido": "울산",
        "sigungu": "중구",
        "eupmyeondong": "복산동646-1_장미아파트앞",
        "address": "울산광역시 중구 복산동646-1_장미아파트앞",
        "purpose": "방범용",
        "latitude": 35.56325,
        "longitude": 129.326,
        "manager_phone": "052-290-4083",
        "police_linked": "Y",
        "bell_id": 1166
    },
    {
        "id": 61147,
        "sido": "울산",
        "sigungu": "중구",
        "eupmyeondong": "손골5길25_성신탕앞사거리",
        "address": "울산광역시 중구 손골5길25_성신탕앞사거리",
        "purpose": "방범용",
        "latitude": 35.56466,
        "longitude": 129.3272,
        "manager_phone": "052-290-4083",
        "police_linked": "Y",
        "bell_id": 1167
    },
    {
        "id": 61148,
        "sido": "울산",
        "sigungu": "중구",
        "eupmyeondong": "복산1동길40_MG새마을금고앞",
        "address": "울산광역시 중구 복산1동길40_MG새마을금고앞",
        "purpose": "방범용",
        "latitude": 35.56117,
        "longitude": 129.3281,
        "manager_phone": "052-290-4083",
        "police_linked": "Y",
        "bell_id": 1168
    },
    {
        "id": 61149,
        "sido": "울산",
        "sigungu": "중구",
        "eupmyeondong": "손골9길37-1_신한그린맨션정문건너편",
        "address": "울산광역시 중구 손골9길37-1_신한그린맨션정문건너편",
        "purpose": "방범용",
        "latitude": 35.56451,
        "longitude": 129.3236,
        "manager_phone": "052-290-4083",
        "police_linked": "Y",
        "bell_id": 1169
    },
    {
        "id": 61150,
        "sido": "울산",
        "sigungu": "중구",
        "eupmyeondong": "곽남길10_새마을금고앞_옛유진약국",
        "address": "울산광역시 중구 곽남길10_새마을금고앞_옛유진약국",
        "purpose": "방범용",
        "latitude": 35.56892,
        "longitude": 129.3426,
        "manager_phone": "052-290-4083",
        "police_linked": "Y",
        "bell_id": 1104
    },
    {
        "id": 61151,
        "sido": "울산",
        "sigungu": "중구",
        "eupmyeondong": "해오름3길30_정은상가",
        "address": "울산광역시 중구 해오름3길30_정은상가",
        "purpose": "방범용",
        "latitude": 35.56314,
        "longitude": 129.3438,
        "manager_phone": "052-290-4083",
        "police_linked": "Y",
        "bell_id": 1121
    },
    {
        "id": 61152,
        "sido": "울산",
        "sigungu": "중구",
        "eupmyeondong": "반구동784-7_내황공원",
        "address": "울산광역시 중구 반구동784-7_내황공원",
        "purpose": "방범용",
        "latitude": 35.55197,
        "longitude": 129.3454,
        "manager_phone": "052-290-4083",
        "police_linked": "Y",
        "bell_id": 1043
    },
    {
        "id": 61153,
        "sido": "울산",
        "sigungu": "중구",
        "eupmyeondong": "반구동51-5_가온중_남동측",
        "address": "울산광역시 중구 반구동51-5_가온중_남동측",
        "purpose": "방범용",
        "latitude": 35.564,
        "longitude": 129.3393,
        "manager_phone": "052-290-4083",
        "police_linked": "Y",
        "bell_id": 1074
    },
    {
        "id": 61154,
        "sido": "울산",
        "sigungu": "중구",
        "eupmyeondong": "다운로87_다운치안센터뒤",
        "address": "울산광역시 중구 다운로87_다운치안센터뒤",
        "purpose": "방범용",
        "latitude": 35.56133,
        "longitude": 129.269,
        "manager_phone": "052-290-4083",
        "police_linked": "Y",
        "bell_id": 1001
    },
    {
        "id": 61155,
        "sido": "울산",
        "sigungu": "중구",
        "eupmyeondong": "구교2길15_대일기업앞",
        "address": "울산광역시 중구 구교2길15_대일기업앞",
        "purpose": "방범용",
        "latitude": 35.56188,
        "longitude": 129.3398,
        "manager_phone": "052-290-4083",
        "police_linked": "Y",
        "bell_id": 1079
    },
    {
        "id": 61156,
        "sido": "울산",
        "sigungu": "중구",
        "eupmyeondong": "반구정4길34_반구시장_주택앞",
        "address": "울산광역시 중구 반구정4길34_반구시장_주택앞",
        "purpose": "방범용",
        "latitude": 35.55683,
        "longitude": 129.3439,
        "manager_phone": "052-290-4083",
        "police_linked": "Y",
        "bell_id": 1044
    },
    {
        "id": 61157,
        "sido": "울산",
        "sigungu": "중구",
        "eupmyeondong": "내황4길38_대한노인회관앞",
        "address": "울산광역시 중구 내황4길38_대한노인회관앞",
        "purpose": "방범용",
        "latitude": 35.55232,
        "longitude": 129.3434,
        "manager_phone": "052-290-4083",
        "police_linked": "Y",
        "bell_id": 1045
    },
    {
        "id": 61158,
        "sido": "울산",
        "sigungu": "중구",
        "eupmyeondong": "함월3길17_장한리치빌앞",
        "address": "울산광역시 중구 함월3길17_장한리치빌앞",
        "purpose": "방범용",
        "latitude": 35.5747,
        "longitude": 129.3052,
        "manager_phone": "052-290-4083",
        "police_linked": "Y",
        "bell_id": 1197
    },
    {
        "id": 61159,
        "sido": "울산",
        "sigungu": "중구",
        "eupmyeondong": "성안7길6_신원골든빌라앞",
        "address": "울산광역시 중구 성안7길6_신원골든빌라앞",
        "purpose": "방범용",
        "latitude": 35.57573,
        "longitude": 129.3175,
        "manager_phone": "052-290-4083",
        "police_linked": "Y",
        "bell_id": 1198
    },
    {
        "id": 61160,
        "sido": "울산",
        "sigungu": "중구",
        "eupmyeondong": "학성공원내부3층_화장실옆",
        "address": "울산광역시 중구 학성공원내부3층_화장실옆",
        "purpose": "기타",
        "latitude": 35.55478,
        "longitude": 129.3394,
        "manager_phone": "052-290-4083",
        "police_linked": "Y",
        "bell_id": 4112
    },
    {
        "id": 61161,
        "sido": "울산",
        "sigungu": "중구",
        "eupmyeondong": "학성공원내부2층_체육시설앞광장",
        "address": "울산광역시 중구 학성공원내부2층_체육시설앞광장",
        "purpose": "기타",
        "latitude": 35.55511,
        "longitude": 129.3399,
        "manager_phone": "052-290-4083",
        "police_linked": "Y",
        "bell_id": 4111
    },
    {
        "id": 61162,
        "sido": "울산",
        "sigungu": "중구",
        "eupmyeondong": "우정동444_우정공원",
        "address": "울산광역시 중구 우정동444_우정공원",
        "purpose": "기타",
        "latitude": 35.56053,
        "longitude": 129.3105,
        "manager_phone": "052-290-4083",
        "police_linked": "Y",
        "bell_id": 4086
    },
    {
        "id": 61163,
        "sido": "울산",
        "sigungu": "중구",
        "eupmyeondong": "대숲산책로서측회전",
        "address": "울산광역시 중구 대숲산책로서측회전",
        "purpose": "기타",
        "latitude": 35.54565,
        "longitude": 129.2965,
        "manager_phone": "052-290-4083",
        "police_linked": "Y",
        "bell_id": 4097
    },
    {
        "id": 61164,
        "sido": "울산",
        "sigungu": "중구",
        "eupmyeondong": "대숲산책로동측회전",
        "address": "울산광역시 중구 대숲산책로동측회전",
        "purpose": "기타",
        "latitude": 35.5467,
        "longitude": 129.302,
        "manager_phone": "052-290-4083",
        "police_linked": "Y",
        "bell_id": 4096
    },
    {
        "id": 61165,
        "sido": "울산",
        "sigungu": "중구",
        "eupmyeondong": "대숲산책로전원타운앞",
        "address": "울산광역시 중구 대숲산책로전원타운앞",
        "purpose": "기타",
        "latitude": 35.54837,
        "longitude": 129.2908,
        "manager_phone": "052-290-4083",
        "police_linked": "Y",
        "bell_id": 4095
    },
    {
        "id": 61166,
        "sido": "울산",
        "sigungu": "중구",
        "eupmyeondong": "대숲산책로만남의광장",
        "address": "울산광역시 중구 대숲산책로만남의광장",
        "purpose": "기타",
        "latitude": 35.5497,
        "longitude": 129.2983,
        "manager_phone": "052-290-4083",
        "police_linked": "Y",
        "bell_id": 4094
    },
    {
        "id": 61167,
        "sido": "울산",
        "sigungu": "중구",
        "eupmyeondong": "대숲산책로야외공연장",
        "address": "울산광역시 중구 대숲산책로야외공연장",
        "purpose": "기타",
        "latitude": 35.54892,
        "longitude": 129.3021,
        "manager_phone": "052-290-4083",
        "police_linked": "Y",
        "bell_id": 4093
    },
    {
        "id": 61168,
        "sido": "울산",
        "sigungu": "중구",
        "eupmyeondong": "성안동761_성안숯못생태공원",
        "address": "울산광역시 중구 성안동761_성안숯못생태공원",
        "purpose": "기타",
        "latitude": 35.57953,
        "longitude": 129.3134,
        "manager_phone": "052-290-4083",
        "police_linked": "Y",
        "bell_id": 4065
    },